[{"id":32003,"name":"A Arnoia","province":"Ourense","lat":42.253066,"lng":-8.135751},{"id":15007,"name":"A Baña","province":"A Coruña","lat":42.961898,"lng":-8.758003},{"id":32014,"name":"A Bola","province":"Ourense","lat":42.140937,"lng":-7.928518},{"id":36009,"name":"A Cañiza","province":"Pontevedra","lat":42.212754,"lng":-8.273359},{"id":15018,"name":"A Capela","province":"A Coruña","lat":43.435552,"lng":-8.068806},{"id":15030,"name":"A Coruña","province":"A Coruña","lat":43.371495,"lng":-8.395826},{"id":36017,"name":"A Estrada","province":"Pontevedra","lat":42.68852,"lng":-8.489019},{"id":27018,"name":"A Fonsagrada","province":"Lugo","lat":43.126389,"lng":-7.067361},{"id":36023,"name":"A Guarda","province":"Pontevedra","lat":41.90117,"lng":-8.874219},{"id":32034,"name":"A Gudiña","province":"Ourense","lat":42.060635,"lng":-7.139},{"id":36901,"name":"A Illa de Arousa","province":"Pontevedra","lat":42.56383,"lng":-8.873913},{"id":36025,"name":"A Lama","province":"Pontevedra","lat":42.397589,"lng":-8.44265},{"id":15041,"name":"A Laracha","province":"A Coruña","lat":43.248539,"lng":-8.582146},{"id":32047,"name":"A Merca","province":"Ourense","lat":42.219156,"lng":-7.908477},{"id":32048,"name":"A Mezquita","province":"Ourense","lat":42.013696,"lng":-7.045363},{"id":27044,"name":"A Pastoriza","province":"Lugo","lat":43.300241,"lng":-7.351704},{"id":32059,"name":"A Peroxa","province":"Ourense","lat":42.440496,"lng":-7.794303},{"id":32063,"name":"A Pobra de Trives","province":"Ourense","lat":42.340694,"lng":-7.251922},{"id":27047,"name":"A Pobra do Brollón","province":"Lugo","lat":42.557313,"lng":-7.393327},{"id":15067,"name":"A Pobra do Caramiñal","province":"A Coruña","lat":42.603235,"lng":-8.939011},{"id":27048,"name":"A Pontenova","province":"Lugo","lat":43.347556,"lng":-7.1925},{"id":32072,"name":"A Rúa","province":"Ourense","lat":42.395137,"lng":-7.114129},{"id":32080,"name":"A Teixeira","province":"Ourense","lat":42.391224,"lng":-7.472469},{"id":32083,"name":"A Veiga","province":"Ourense","lat":42.250069,"lng":-7.026103},{"id":44001,"name":"Ababuj","province":"Teruel","lat":40.548904,"lng":-0.80797},{"id":40001,"name":"Abades","province":"Segovia","lat":40.91592,"lng":-4.267283},{"id":10001,"name":"Abadía","province":"Cáceres","lat":40.259551,"lng":-5.978093},{"id":27001,"name":"Abadín","province":"Lugo","lat":43.363587,"lng":-7.474996},{"id":48001,"name":"Abadiño","province":"Bizkaia","lat":43.152499,"lng":-2.608188},{"id":31001,"name":"Abáigar","province":"Navarra","lat":42.648559,"lng":-2.141324},{"id":9001,"name":"Abajas","province":"Burgos","lat":42.622929,"lng":-3.582812},{"id":26001,"name":"Ábalos","province":"La Rioja","lat":42.57378,"lng":-2.710604},{"id":20001,"name":"Abaltzisketa","province":"Gipuzkoa","lat":43.047821,"lng":-2.105565},{"id":19001,"name":"Abánades","province":"Guadalajara","lat":40.892662,"lng":-2.485373},{"id":30001,"name":"Abanilla","province":"Murcia","lat":38.207261,"lng":-1.04153},{"id":50001,"name":"Abanto","province":"Zaragoza","lat":41.137462,"lng":-1.697792},{"id":48002,"name":"Abanto y Ciérvana-Abanto Zierbena","province":"Bizkaia","lat":43.320733,"lng":-3.073873},{"id":30002,"name":"Abarán","province":"Murcia","lat":38.202812,"lng":-1.400344},{"id":34001,"name":"Abarca de Campos","province":"Palencia","lat":42.062243,"lng":-4.840567},{"id":31002,"name":"Abárzuza/Abartzuza","province":"Navarra","lat":42.725929,"lng":-2.021781},{"id":31003,"name":"Abaurregaina/Abaurrea Alta","province":"Navarra","lat":42.903489,"lng":-1.207911},{"id":31004,"name":"Abaurrepea/Abaurrea Baja","province":"Navarra","lat":42.909819,"lng":-1.216846},{"id":15001,"name":"Abegondo","province":"A Coruña","lat":43.227281,"lng":-8.288772},{"id":42001,"name":"Abejar","province":"Soria","lat":41.807316,"lng":-2.783944},{"id":44002,"name":"Abejuela","province":"Teruel","lat":39.909781,"lng":-0.893336},{"id":25001,"name":"Abella de la Conca","province":"Lleida","lat":42.161421,"lng":1.091772},{"id":2001,"name":"Abengibre","province":"Albacete","lat":39.209752,"lng":-1.540796},{"id":13001,"name":"Abenójar","province":"Ciudad Real","lat":38.880128,"lng":-4.355433},{"id":31005,"name":"Aberin","province":"Navarra","lat":42.619369,"lng":-2.007619},{"id":10002,"name":"Abertura","province":"Cáceres","lat":39.243979,"lng":-5.813162},{"id":49002,"name":"Abezames","province":"Zamora","lat":41.625063,"lng":-5.426648},{"id":16001,"name":"Abia de la Obispalía","province":"Cuenca","lat":40.018773,"lng":-2.394329},{"id":34003,"name":"Abia de las Torres","province":"Palencia","lat":42.42022,"lng":-4.421902},{"id":22001,"name":"Abiego","province":"Huesca","lat":42.121926,"lng":-0.070944},{"id":22002,"name":"Abizanda","province":"Huesca","lat":42.242411,"lng":0.197402},{"id":4001,"name":"Abla","province":"Almería","lat":37.141484,"lng":-2.779619},{"id":19002,"name":"Ablanque","province":"Guadalajara","lat":40.898076,"lng":-2.229019},{"id":31006,"name":"Ablitas","province":"Navarra","lat":41.972485,"lng":-1.642891},{"id":8001,"name":"Abrera","province":"Barcelona","lat":41.516398,"lng":1.901569},{"id":4002,"name":"Abrucena","province":"Almería","lat":37.133383,"lng":-2.796592},{"id":37001,"name":"Abusejo","province":"Salamanca","lat":40.708149,"lng":-6.140172},{"id":24001,"name":"Acebedo","province":"León","lat":43.040732,"lng":-5.115871},{"id":10003,"name":"Acebo","province":"Cáceres","lat":40.201842,"lng":-6.717526},{"id":6001,"name":"Acedera","province":"Badajoz","lat":39.074684,"lng":-5.572301},{"id":10004,"name":"Acehúche","province":"Cáceres","lat":39.802958,"lng":-6.634175},{"id":10005,"name":"Aceituna","province":"Cáceres","lat":40.148909,"lng":-6.33121},{"id":50002,"name":"Acered","province":"Zaragoza","lat":41.170075,"lng":-1.603893},{"id":6002,"name":"Aceuchal","province":"Badajoz","lat":38.647755,"lng":-6.487251},{"id":22003,"name":"Adahuesca","province":"Huesca","lat":42.14692,"lng":-0.008355},{"id":47001,"name":"Adalia","province":"Valladolid","lat":41.648542,"lng":-5.121855},{"id":14001,"name":"Adamuz","province":"Córdoba","lat":38.027393,"lng":-4.524984},{"id":5001,"name":"Adanero","province":"Ávila","lat":40.943788,"lng":-4.604007},{"id":38001,"name":"Adeje","province":"Santa Cruz de Tenerife","lat":28.122658,"lng":-16.724199},{"id":46001,"name":"Ademuz","province":"València/Valencia","lat":40.06077,"lng":-1.286141},{"id":31007,"name":"Adiós","province":"Navarra","lat":42.687299,"lng":-1.73542},{"id":19003,"name":"Adobes","province":"Guadalajara","lat":40.676239,"lng":-1.678703},{"id":46002,"name":"Ador","province":"València/Valencia","lat":38.919729,"lng":-0.224548},{"id":4003,"name":"Adra","province":"Almería","lat":36.749298,"lng":-3.014554},{"id":9003,"name":"Adrada de Haza","province":"Burgos","lat":41.59465,"lng":-3.82331},{"id":40002,"name":"Adrada de Pirón","province":"Segovia","lat":41.052237,"lng":-4.050804},{"id":42003,"name":"Adradas","province":"Soria","lat":41.350836,"lng":-2.472752},{"id":40003,"name":"Adrados","province":"Segovia","lat":41.368429,"lng":-4.113028},{"id":20002,"name":"Aduna","province":"Gipuzkoa","lat":43.203894,"lng":-2.050186},{"id":35001,"name":"Agaete","province":"Las Palmas","lat":28.09908,"lng":-15.698472},{"id":37002,"name":"Agallas","province":"Salamanca","lat":40.449531,"lng":-6.441955},{"id":25002,"name":"Àger","province":"Lleida","lat":41.999239,"lng":0.763467},{"id":36020,"name":"Agolada","province":"Pontevedra","lat":42.762672,"lng":-8.019001},{"id":50003,"name":"Agón","province":"Zaragoza","lat":41.855515,"lng":-1.45277},{"id":26002,"name":"Agoncillo","province":"La Rioja","lat":42.4463,"lng":-2.291578},{"id":3002,"name":"Agost","province":"Alacant/Alicante","lat":38.439268,"lng":-0.63855},{"id":25003,"name":"Agramunt","province":"Lleida","lat":41.787021,"lng":1.098853},{"id":42004,"name":"Ágreda","province":"Soria","lat":41.85427,"lng":-1.920219},{"id":3003,"name":"Agres","province":"Alacant/Alicante","lat":38.779997,"lng":-0.515475},{"id":18001,"name":"Agrón","province":"Granada","lat":37.030639,"lng":-3.830049},{"id":41001,"name":"Aguadulce","province":"Sevilla","lat":37.252698,"lng":-4.991369},{"id":50004,"name":"Aguarón","province":"Zaragoza","lat":41.338527,"lng":-1.269711},{"id":9006,"name":"Aguas Cándidas","province":"Burgos","lat":42.716352,"lng":-3.502786},{"id":47002,"name":"Aguasal","province":"Valladolid","lat":41.274683,"lng":-4.653867},{"id":44003,"name":"Aguatón","province":"Teruel","lat":40.671368,"lng":-1.234568},{"id":44004,"name":"Aguaviva","province":"Teruel","lat":40.822698,"lng":-0.19659},{"id":13002,"name":"Agudo","province":"Ciudad Real","lat":38.983441,"lng":-4.871223},{"id":22004,"name":"Agüero","province":"Huesca","lat":42.355104,"lng":-0.794416},{"id":40004,"name":"Aguilafuente","province":"Segovia","lat":41.22813,"lng":-4.111544},{"id":9007,"name":"Aguilar de Bureba","province":"Burgos","lat":42.589846,"lng":-3.32816},{"id":34004,"name":"Aguilar de Campoo","province":"Palencia","lat":42.793334,"lng":-4.262147},{"id":47003,"name":"Aguilar de Campos","province":"Valladolid","lat":41.984253,"lng":-5.18045},{"id":31008,"name":"Aguilar de Codés","province":"Navarra","lat":42.613078,"lng":-2.389611},{"id":14002,"name":"Aguilar de la Frontera","province":"Córdoba","lat":37.514866,"lng":-4.656246},{"id":8002,"name":"Aguilar de Segarra","province":"Barcelona","lat":41.739268,"lng":1.631134},{"id":44005,"name":"Aguilar del Alfambra","province":"Teruel","lat":40.589318,"lng":-0.795648},{"id":26003,"name":"Aguilar del Río Alhama","province":"La Rioja","lat":41.961591,"lng":-1.993475},{"id":30003,"name":"Águilas","province":"Murcia","lat":37.404179,"lng":-1.58218},{"id":50005,"name":"Aguilón","province":"Zaragoza","lat":41.294775,"lng":-1.04592},{"id":35002,"name":"Agüimes","province":"Las Palmas","lat":27.903832,"lng":-15.445772},{"id":17001,"name":"Agullana","province":"Girona","lat":42.393644,"lng":2.847},{"id":46004,"name":"Agullent","province":"València/Valencia","lat":38.823287,"lng":-0.547412},{"id":38002,"name":"Agulo","province":"Santa Cruz de Tenerife","lat":28.188662,"lng":-17.19407},{"id":1051,"name":"Agurain/Salvatierra","province":"Araba/Álava","lat":42.850452,"lng":-2.389753},{"id":10006,"name":"Ahigal","province":"Cáceres","lat":40.189372,"lng":-6.187152},{"id":37003,"name":"Ahigal de los Aceiteros","province":"Salamanca","lat":40.872065,"lng":-6.747208},{"id":37004,"name":"Ahigal de Villarino","province":"Salamanca","lat":41.158055,"lng":-6.37905},{"id":6003,"name":"Ahillones","province":"Badajoz","lat":38.260388,"lng":-5.864939},{"id":20016,"name":"Aia","province":"Gipuzkoa","lat":43.236418,"lng":-2.148064},{"id":31009,"name":"Aibar/Oibar","province":"Navarra","lat":42.591322,"lng":-1.36035},{"id":46042,"name":"Aielo de Malferit","province":"València/Valencia","lat":38.876655,"lng":-0.592517},{"id":46043,"name":"Aielo de Rugat","province":"València/Valencia","lat":38.881572,"lng":-0.343138},{"id":8014,"name":"Aiguafreda","province":"Barcelona","lat":41.768901,"lng":2.2494},{"id":43001,"name":"Aiguamúrcia","province":"Tarragona","lat":41.329342,"lng":1.358554},{"id":17002,"name":"Aiguaviva","province":"Girona","lat":41.938412,"lng":2.76194},{"id":3004,"name":"Aigües","province":"Alacant/Alicante","lat":38.500442,"lng":-0.363907},{"id":12002,"name":"Aín","province":"Castelló/Castellón","lat":39.900712,"lng":-0.340722},{"id":22907,"name":"Aínsa-Sobrarbe","province":"Huesca","lat":42.417103,"lng":0.138946},{"id":50006,"name":"Ainzón","province":"Zaragoza","lat":41.817173,"lng":-1.520114},{"id":22006,"name":"Aisa","province":"Huesca","lat":42.679171,"lng":-0.620981},{"id":25038,"name":"Aitona","province":"Lleida","lat":41.494392,"lng":0.458504},{"id":20003,"name":"Aizarnazabal","province":"Gipuzkoa","lat":43.255654,"lng":-2.236537},{"id":28002,"name":"Ajalvir","province":"Madrid","lat":40.534271,"lng":-3.480942},{"id":26004,"name":"Ajamil de Cameros","province":"La Rioja","lat":42.167458,"lng":-2.487824},{"id":48911,"name":"Ajangiz","province":"Bizkaia","lat":43.309457,"lng":-2.661824},{"id":45001,"name":"Ajofrín","province":"Toledo","lat":39.713258,"lng":-3.982323},{"id":3014,"name":"Alacant/Alicante","province":"Alacant/Alicante","lat":38.345307,"lng":-0.481366},{"id":44006,"name":"Alacón","province":"Teruel","lat":41.023175,"lng":-0.696909},{"id":50007,"name":"Aladrén","province":"Zaragoza","lat":41.249009,"lng":-1.155754},{"id":47004,"name":"Alaejos","province":"Valladolid","lat":41.307369,"lng":-5.216574},{"id":50008,"name":"Alagón","province":"Zaragoza","lat":41.770442,"lng":-1.120996},{"id":10903,"name":"Alagón del Río","province":"Cáceres","lat":39.973843,"lng":-6.315619},{"id":7002,"name":"Alaior","province":"Illes Balears","lat":39.934162,"lng":4.139749},{"id":21001,"name":"Alájar","province":"Huelva","lat":37.874661,"lng":-6.665941},{"id":38003,"name":"Alajeró","province":"Santa Cruz de Tenerife","lat":28.063727,"lng":-17.240059},{"id":29001,"name":"Alameda","province":"Málaga","lat":37.207676,"lng":-4.658198},{"id":45002,"name":"Alameda de la Sagra","province":"Toledo","lat":40.013455,"lng":-3.797267},{"id":28003,"name":"Alameda del Valle","province":"Madrid","lat":40.918056,"lng":-3.843636},{"id":18002,"name":"Alamedilla","province":"Granada","lat":37.581561,"lng":-3.24449},{"id":13003,"name":"Alamillo","province":"Ciudad Real","lat":38.677105,"lng":-4.790422},{"id":19004,"name":"Alaminos","province":"Guadalajara","lat":40.863423,"lng":-2.726299},{"id":6004,"name":"Alange","province":"Badajoz","lat":38.785349,"lng":-6.248759},{"id":41002,"name":"Alanís","province":"Sevilla","lat":38.037727,"lng":-5.715161},{"id":46005,"name":"Alaquàs","province":"València/Valencia","lat":39.457148,"lng":-0.460863},{"id":34005,"name":"Alar del Rey","province":"Palencia","lat":42.659084,"lng":-4.310683},{"id":37007,"name":"Alaraz","province":"Salamanca","lat":40.747878,"lng":-5.28743},{"id":50009,"name":"Alarba","province":"Zaragoza","lat":41.204316,"lng":-1.613392},{"id":16003,"name":"Alarcón","province":"Cuenca","lat":39.546638,"lng":-2.088145},{"id":19005,"name":"Alarilla","province":"Guadalajara","lat":40.849697,"lng":-3.105602},{"id":7001,"name":"Alaró","province":"Illes Balears","lat":39.7059,"lng":2.789117},{"id":25005,"name":"Alàs i Cerc","province":"Lleida","lat":42.35188,"lng":1.508291},{"id":2002,"name":"Alatoz","province":"Albacete","lat":39.094448,"lng":-1.36101},{"id":44007,"name":"Alba","province":"Teruel","lat":40.617967,"lng":-1.34627},{"id":34006,"name":"Alba de Cerrato","province":"Palencia","lat":41.812807,"lng":-4.365285},{"id":37008,"name":"Alba de Tormes","province":"Salamanca","lat":40.827422,"lng":-5.514767},{"id":37009,"name":"Alba de Yeltes","province":"Salamanca","lat":40.672092,"lng":-6.317409},{"id":2003,"name":"Albacete","province":"Albacete","lat":38.996134,"lng":-1.855678},{"id":46006,"name":"Albaida","province":"València/Valencia","lat":38.841681,"lng":-0.519657},{"id":41003,"name":"Albaida del Aljarafe","province":"Sevilla","lat":37.426996,"lng":-6.165984},{"id":46007,"name":"Albal","province":"València/Valencia","lat":39.397405,"lng":-0.413173},{"id":10007,"name":"Albalá","province":"Cáceres","lat":39.254403,"lng":-6.185581},{"id":13004,"name":"Albaladejo","province":"Ciudad Real","lat":38.617858,"lng":-2.806748},{"id":16004,"name":"Albaladejo del Cuende","province":"Cuenca","lat":39.808186,"lng":-2.228601},{"id":46008,"name":"Albalat de la Ribera","province":"València/Valencia","lat":39.20103,"lng":-0.386689},{"id":46009,"name":"Albalat dels Sorells","province":"València/Valencia","lat":39.544255,"lng":-0.346944},{"id":46010,"name":"Albalat dels Tarongers","province":"València/Valencia","lat":39.702204,"lng":-0.337259},{"id":22007,"name":"Albalate de Cinca","province":"Huesca","lat":41.721849,"lng":0.145505},{"id":16005,"name":"Albalate de las Nogueras","province":"Cuenca","lat":40.366922,"lng":-2.276566},{"id":19006,"name":"Albalate de Zorita","province":"Guadalajara","lat":40.308399,"lng":-2.844106},{"id":44008,"name":"Albalate del Arzobispo","province":"Teruel","lat":41.121065,"lng":-0.511227},{"id":22008,"name":"Albalatillo","province":"Huesca","lat":41.735538,"lng":-0.150888},{"id":4004,"name":"Albanchez","province":"Almería","lat":37.287148,"lng":-2.181107},{"id":23001,"name":"Albanchez de Mágina","province":"Jaén","lat":37.791636,"lng":-3.468166},{"id":17003,"name":"Albanyà","province":"Girona","lat":42.305856,"lng":2.721528},{"id":19007,"name":"Albares","province":"Guadalajara","lat":40.307489,"lng":-3.012445},{"id":44009,"name":"Albarracín","province":"Teruel","lat":40.40767,"lng":-1.443274},{"id":45003,"name":"Albarreal de Tajo","province":"Toledo","lat":39.897106,"lng":-4.228893},{"id":2004,"name":"Albatana","province":"Albacete","lat":38.571101,"lng":-1.5228},{"id":25007,"name":"Albatàrrec","province":"Lleida","lat":41.571986,"lng":0.605075},{"id":3005,"name":"Albatera","province":"Alacant/Alicante","lat":38.178254,"lng":-0.86914},{"id":22009,"name":"Albelda","province":"Huesca","lat":41.865041,"lng":0.459392},{"id":26005,"name":"Albelda de Iregua","province":"La Rioja","lat":42.35833,"lng":-2.473387},{"id":16006,"name":"Albendea","province":"Cuenca","lat":40.487836,"lng":-2.417367},{"id":19008,"name":"Albendiego","province":"Guadalajara","lat":41.226863,"lng":-3.051857},{"id":44010,"name":"Albentosa","province":"Teruel","lat":40.103622,"lng":-0.768787},{"id":46011,"name":"Alberic","province":"València/Valencia","lat":39.116451,"lng":-0.517637},{"id":26006,"name":"Alberite","province":"La Rioja","lat":42.405969,"lng":-2.441253},{"id":50010,"name":"Alberite de San Juan","province":"Zaragoza","lat":41.820133,"lng":-1.470443},{"id":22011,"name":"Albero Alto","province":"Huesca","lat":42.051105,"lng":-0.33739},{"id":22012,"name":"Albero Bajo","province":"Huesca","lat":42.023505,"lng":-0.378666},{"id":22013,"name":"Alberuela de Tubo","province":"Huesca","lat":41.908071,"lng":-0.213272},{"id":25008,"name":"Albesa","province":"Lleida","lat":41.750823,"lng":0.659631},{"id":50011,"name":"Albeta","province":"Zaragoza","lat":41.826672,"lng":-1.499544},{"id":9009,"name":"Albillos","province":"Burgos","lat":42.275789,"lng":-3.791186},{"id":43002,"name":"Albinyana","province":"Tarragona","lat":41.245633,"lng":1.486185},{"id":20004,"name":"Albiztur","province":"Gipuzkoa","lat":43.129853,"lng":-2.137121},{"id":12003,"name":"Albocàsser","province":"Castelló/Castellón","lat":40.357622,"lng":0.024311},{"id":4005,"name":"Alboloduy","province":"Almería","lat":37.032855,"lng":-2.621739},{"id":18003,"name":"Albolote","province":"Granada","lat":37.230582,"lng":-3.657286},{"id":18004,"name":"Albondón","province":"Granada","lat":36.828169,"lng":-3.210797},{"id":17004,"name":"Albons","province":"Girona","lat":42.104229,"lng":3.085323},{"id":46012,"name":"Alborache","province":"València/Valencia","lat":39.391654,"lng":-0.77107},{"id":46013,"name":"Alboraia/Alboraya","province":"València/Valencia","lat":39.501239,"lng":-0.350104},{"id":2005,"name":"Alborea","province":"Albacete","lat":39.279683,"lng":-1.395985},{"id":50012,"name":"Alborge","province":"Zaragoza","lat":41.334751,"lng":-0.358355},{"id":5005,"name":"Albornos","province":"Ávila","lat":40.838533,"lng":-4.881464},{"id":4006,"name":"Albox","province":"Almería","lat":37.389678,"lng":-2.146835},{"id":30004,"name":"Albudeite","province":"Murcia","lat":38.028421,"lng":-1.385337},{"id":46014,"name":"Albuixech","province":"València/Valencia","lat":39.544332,"lng":-0.325146},{"id":18005,"name":"Albuñán","province":"Granada","lat":37.227093,"lng":-3.13343},{"id":18006,"name":"Albuñol","province":"Granada","lat":36.791274,"lng":-3.203267},{"id":18007,"name":"Albuñuelas","province":"Granada","lat":36.928576,"lng":-3.623139},{"id":6006,"name":"Alburquerque","province":"Badajoz","lat":39.218604,"lng":-6.999548},{"id":45004,"name":"Alcabón","province":"Toledo","lat":40.002237,"lng":-4.368751},{"id":2006,"name":"Alcadozo","province":"Albacete","lat":38.648865,"lng":-1.980883},{"id":44011,"name":"Alcaine","province":"Teruel","lat":40.953109,"lng":-0.70502},{"id":50013,"name":"Alcalá de Ebro","province":"Zaragoza","lat":41.815311,"lng":-1.194925},{"id":41004,"name":"Alcalá de Guadaíra","province":"Sevilla","lat":37.333802,"lng":-5.849248},{"id":22014,"name":"Alcalá de Gurrea","province":"Huesca","lat":42.066151,"lng":-0.684855},{"id":28005,"name":"Alcalá de Henares","province":"Madrid","lat":40.481793,"lng":-3.364867},{"id":44012,"name":"Alcalá de la Selva","province":"Teruel","lat":40.372302,"lng":-0.720111},{"id":16008,"name":"Alcalá de la Vega","province":"Cuenca","lat":40.027464,"lng":-1.524845},{"id":11001,"name":"Alcalá de los Gazules","province":"Cádiz","lat":36.46195,"lng":-5.721274},{"id":50014,"name":"Alcalá de Moncayo","province":"Zaragoza","lat":41.786177,"lng":-1.695973},{"id":12004,"name":"Alcalà de Xivert","province":"Castelló/Castellón","lat":40.303666,"lng":0.224865},{"id":2007,"name":"Alcalá del Júcar","province":"Albacete","lat":39.191681,"lng":-1.429209},{"id":22015,"name":"Alcalá del Obispo","province":"Huesca","lat":42.076883,"lng":-0.287939},{"id":41005,"name":"Alcalá del Río","province":"Sevilla","lat":37.518089,"lng":-5.978563},{"id":11002,"name":"Alcalá del Valle","province":"Cádiz","lat":36.905064,"lng":-5.173136},{"id":23002,"name":"Alcalá la Real","province":"Jaén","lat":37.463475,"lng":-3.925072},{"id":3006,"name":"Alcalalí","province":"Alacant/Alicante","lat":38.749561,"lng":-0.041028},{"id":22016,"name":"Alcampell","province":"Huesca","lat":41.905807,"lng":0.432119},{"id":26007,"name":"Alcanadre","province":"La Rioja","lat":42.405018,"lng":-2.120045},{"id":43004,"name":"Alcanar","province":"Tarragona","lat":40.542861,"lng":0.481922},{"id":49003,"name":"Alcañices","province":"Zamora","lat":41.698905,"lng":-6.348114},{"id":44013,"name":"Alcañiz","province":"Teruel","lat":41.050323,"lng":-0.132664},{"id":45005,"name":"Alcañizo","province":"Toledo","lat":39.90363,"lng":-5.103822},{"id":25010,"name":"Alcanó","province":"Lleida","lat":41.480484,"lng":0.617208},{"id":10008,"name":"Alcántara","province":"Cáceres","lat":39.72089,"lng":-6.887724},{"id":30005,"name":"Alcantarilla","province":"Murcia","lat":37.972038,"lng":-1.209537},{"id":46016,"name":"Alcàntera de Xúquer","province":"València/Valencia","lat":39.06934,"lng":-0.560174},{"id":16009,"name":"Alcantud","province":"Cuenca","lat":40.548618,"lng":-2.332311},{"id":14003,"name":"Alcaracejos","province":"Córdoba","lat":38.388227,"lng":-4.967604},{"id":2008,"name":"Alcaraz","province":"Albacete","lat":38.665085,"lng":-2.491229},{"id":25011,"name":"Alcarràs","province":"Lleida","lat":41.562835,"lng":0.524371},{"id":46015,"name":"Alcàsser","province":"València/Valencia","lat":39.369856,"lng":-0.445365},{"id":29002,"name":"Alcaucín","province":"Málaga","lat":36.902454,"lng":-4.114022},{"id":23003,"name":"Alcaudete","province":"Jaén","lat":37.590971,"lng":-4.086712},{"id":45006,"name":"Alcaudete de la Jara","province":"Toledo","lat":39.788208,"lng":-4.870405},{"id":13005,"name":"Alcázar de San Juan","province":"Ciudad Real","lat":39.389068,"lng":-3.210533},{"id":16010,"name":"Alcázar del Rey","province":"Cuenca","lat":40.063613,"lng":-2.808255},{"id":47005,"name":"Alcazarén","province":"Valladolid","lat":41.371133,"lng":-4.67152},{"id":13006,"name":"Alcoba","province":"Ciudad Real","lat":39.259951,"lng":-4.477153},{"id":28006,"name":"Alcobendas","province":"Madrid","lat":40.547459,"lng":-3.641871},{"id":19009,"name":"Alcocer","province":"Guadalajara","lat":40.470154,"lng":-2.609799},{"id":9010,"name":"Alcocero de Mola","province":"Burgos","lat":42.473576,"lng":-3.357922},{"id":16011,"name":"Alcohujate","province":"Cuenca","lat":40.417362,"lng":-2.615392},{"id":3009,"name":"Alcoi/Alcoy","province":"Alacant/Alicante","lat":38.697642,"lng":-0.473163},{"id":4007,"name":"Alcolea","province":"Almería","lat":36.974484,"lng":-2.961056},{"id":13007,"name":"Alcolea de Calatrava","province":"Ciudad Real","lat":38.987335,"lng":-4.115882},{"id":22017,"name":"Alcolea de Cinca","province":"Huesca","lat":41.718093,"lng":0.117899},{"id":19010,"name":"Alcolea de las Peñas","province":"Guadalajara","lat":41.209689,"lng":-2.785053},{"id":45007,"name":"Alcolea de Tajo","province":"Toledo","lat":39.809106,"lng":-5.147997},{"id":19011,"name":"Alcolea del Pinar","province":"Guadalajara","lat":41.035986,"lng":-2.466885},{"id":41006,"name":"Alcolea del Río","province":"Sevilla","lat":37.614302,"lng":-5.668812},{"id":3008,"name":"Alcoleja","province":"Alacant/Alicante","lat":38.674824,"lng":-0.330978},{"id":25012,"name":"Alcoletge","province":"Lleida","lat":41.647008,"lng":0.694343},{"id":10009,"name":"Alcollarín","province":"Cáceres","lat":39.244941,"lng":-5.739949},{"id":42006,"name":"Alconaba","province":"Soria","lat":41.722985,"lng":-2.385281},{"id":37012,"name":"Alconada","province":"Salamanca","lat":40.909748,"lng":-5.363091},{"id":40005,"name":"Alconada de Maderuelo","province":"Segovia","lat":41.449859,"lng":-3.485368},{"id":6007,"name":"Alconchel","province":"Badajoz","lat":38.516625,"lng":-7.070704},{"id":50015,"name":"Alconchel de Ariza","province":"Zaragoza","lat":41.204206,"lng":-2.122402},{"id":16012,"name":"Alconchel de la Estrella","province":"Cuenca","lat":39.718675,"lng":-2.573714},{"id":6008,"name":"Alconera","province":"Badajoz","lat":38.398567,"lng":-6.476433},{"id":4008,"name":"Alcóntar","province":"Almería","lat":37.335795,"lng":-2.597155},{"id":28007,"name":"Alcorcón","province":"Madrid","lat":40.349499,"lng":-3.828794},{"id":44014,"name":"Alcorisa","province":"Teruel","lat":40.891982,"lng":-0.38119},{"id":19013,"name":"Alcoroches","province":"Guadalajara","lat":40.626327,"lng":-1.746689},{"id":3007,"name":"Alcosser","province":"Alacant/Alicante","lat":38.795002,"lng":-0.402548},{"id":43005,"name":"Alcover","province":"Tarragona","lat":41.263068,"lng":1.170245},{"id":22018,"name":"Alcubierre","province":"Huesca","lat":41.807924,"lng":-0.452444},{"id":42007,"name":"Alcubilla de Avellaneda","province":"Soria","lat":41.726311,"lng":-3.302692},{"id":42008,"name":"Alcubilla de las Peñas","province":"Soria","lat":41.251971,"lng":-2.526041},{"id":49004,"name":"Alcubilla de Nogales","province":"Zamora","lat":42.127962,"lng":-5.922117},{"id":13008,"name":"Alcubillas","province":"Ciudad Real","lat":38.752338,"lng":-3.134675},{"id":46018,"name":"Alcublas","province":"València/Valencia","lat":39.797096,"lng":-0.702182},{"id":7003,"name":"Alcúdia","province":"Illes Balears","lat":39.852949,"lng":3.121146},{"id":4009,"name":"Alcudia de Monteagud","province":"Almería","lat":37.236046,"lng":-2.266261},{"id":12006,"name":"Alcudia de Veo","province":"Castelló/Castellón","lat":39.916182,"lng":-0.355213},{"id":10010,"name":"Alcuéscar","province":"Cáceres","lat":39.180182,"lng":-6.228296},{"id":46021,"name":"Aldaia","province":"València/Valencia","lat":39.464661,"lng":-0.460765},{"id":47006,"name":"Aldea de San Miguel","province":"Valladolid","lat":41.460807,"lng":-4.617478},{"id":10012,"name":"Aldea del Cano","province":"Cáceres","lat":39.287426,"lng":-6.318677},{"id":28008,"name":"Aldea del Fresno","province":"Madrid","lat":40.324913,"lng":-4.203838},{"id":37015,"name":"Aldea del Obispo","province":"Salamanca","lat":40.707231,"lng":-6.792354},{"id":13009,"name":"Aldea del Rey","province":"Ciudad Real","lat":38.738485,"lng":-3.83942},{"id":45008,"name":"Aldea en Cabo","province":"Toledo","lat":40.184603,"lng":-4.457144},{"id":40012,"name":"Aldea Real","province":"Segovia","lat":41.18551,"lng":-4.165832},{"id":10011,"name":"Aldeacentenera","province":"Cáceres","lat":39.527377,"lng":-5.629453},{"id":37013,"name":"Aldeacipreste","province":"Salamanca","lat":40.380539,"lng":-5.897521},{"id":37014,"name":"Aldeadávila de la Ribera","province":"Salamanca","lat":41.218459,"lng":-6.620071},{"id":42009,"name":"Aldealafuente","province":"Soria","lat":41.671524,"lng":-2.325599},{"id":40006,"name":"Aldealcorvo","province":"Segovia","lat":41.243916,"lng":-3.791732},{"id":37016,"name":"Aldealengua","province":"Salamanca","lat":40.981108,"lng":-5.549072},{"id":40007,"name":"Aldealengua de Pedraza","province":"Segovia","lat":41.064372,"lng":-3.806292},{"id":40008,"name":"Aldealengua de Santa María","province":"Segovia","lat":41.461577,"lng":-3.467629},{"id":42010,"name":"Aldealices","province":"Soria","lat":41.901869,"lng":-2.309086},{"id":42011,"name":"Aldealpozo","province":"Soria","lat":41.781821,"lng":-2.206242},{"id":42012,"name":"Aldealseñor","province":"Soria","lat":41.879327,"lng":-2.315529},{"id":47007,"name":"Aldeamayor de San Martín","province":"Valladolid","lat":41.511938,"lng":-4.640072},{"id":45009,"name":"Aldeanueva de Barbarroya","province":"Toledo","lat":39.758852,"lng":-5.021959},{"id":26008,"name":"Aldeanueva de Ebro","province":"La Rioja","lat":42.229207,"lng":-1.887198},{"id":37017,"name":"Aldeanueva de Figueroa","province":"Salamanca","lat":41.148063,"lng":-5.524835},{"id":19015,"name":"Aldeanueva de Guadalajara","province":"Guadalajara","lat":40.682073,"lng":-3.047269},{"id":40009,"name":"Aldeanueva de la Serrezuela","province":"Segovia","lat":41.459951,"lng":-3.77954},{"id":37018,"name":"Aldeanueva de la Sierra","province":"Salamanca","lat":40.61526,"lng":-6.100347},{"id":10014,"name":"Aldeanueva de la Vera","province":"Cáceres","lat":40.128859,"lng":-5.700187},{"id":45010,"name":"Aldeanueva de San Bartolomé","province":"Toledo","lat":39.637043,"lng":-5.112713},{"id":5007,"name":"Aldeanueva de Santa Cruz","province":"Ávila","lat":40.381626,"lng":-5.420587},{"id":10015,"name":"Aldeanueva del Camino","province":"Cáceres","lat":40.259135,"lng":-5.928723},{"id":40010,"name":"Aldeanueva del Codonal","province":"Segovia","lat":41.082179,"lng":-4.543738},{"id":23004,"name":"Aldeaquemada","province":"Jaén","lat":38.412095,"lng":-3.371146},{"id":37019,"name":"Aldearrodrigo","province":"Salamanca","lat":41.109807,"lng":-5.805871},{"id":37020,"name":"Aldearrubia","province":"Salamanca","lat":41.007721,"lng":-5.498368},{"id":5008,"name":"Aldeaseca","province":"Ávila","lat":41.048561,"lng":-4.817719},{"id":37021,"name":"Aldeaseca de Alba","province":"Salamanca","lat":40.818921,"lng":-5.447165},{"id":37022,"name":"Aldeaseca de la Frontera","province":"Salamanca","lat":40.941953,"lng":-5.207297},{"id":40013,"name":"Aldeasoña","province":"Segovia","lat":41.472239,"lng":-4.056261},{"id":37023,"name":"Aldeatejada","province":"Salamanca","lat":40.921197,"lng":-5.692548},{"id":37024,"name":"Aldeavieja de Tormes","province":"Salamanca","lat":40.584325,"lng":-5.617361},{"id":40014,"name":"Aldehorno","province":"Segovia","lat":41.512783,"lng":-3.777629},{"id":10016,"name":"Aldehuela de Jerte","province":"Cáceres","lat":40.010395,"lng":-6.238141},{"id":37025,"name":"Aldehuela de la Bóveda","province":"Salamanca","lat":40.842308,"lng":-6.048743},{"id":50016,"name":"Aldehuela de Liestos","province":"Zaragoza","lat":41.064389,"lng":-1.700868},{"id":42013,"name":"Aldehuela de Periáñez","province":"Soria","lat":41.807457,"lng":-2.306911},{"id":37026,"name":"Aldehuela de Yeltes","province":"Salamanca","lat":40.662572,"lng":-6.244355},{"id":40015,"name":"Aldehuela del Codonal","province":"Segovia","lat":41.05554,"lng":-4.537951},{"id":18010,"name":"Aldeire","province":"Granada","lat":37.163587,"lng":-3.072018},{"id":40016,"name":"Aldeonte","province":"Segovia","lat":41.350559,"lng":-3.678326},{"id":43006,"name":"Aldover","province":"Tarragona","lat":40.879864,"lng":0.499915},{"id":30006,"name":"Aledo","province":"Murcia","lat":37.791906,"lng":-1.573379},{"id":20005,"name":"Alegia","province":"Gipuzkoa","lat":43.100262,"lng":-2.098268},{"id":1001,"name":"Alegría-Dulantzi","province":"Araba/Álava","lat":42.840452,"lng":-2.512508},{"id":8003,"name":"Alella","province":"Barcelona","lat":41.493612,"lng":2.295316},{"id":42015,"name":"Alentisque","province":"Soria","lat":41.420487,"lng":-2.332146},{"id":22019,"name":"Alerre","province":"Huesca","lat":42.162871,"lng":-0.462959},{"id":26009,"name":"Alesanco","province":"La Rioja","lat":42.414004,"lng":-2.817288},{"id":26010,"name":"Alesón","province":"La Rioja","lat":42.405142,"lng":-2.690793},{"id":18011,"name":"Alfacar","province":"Granada","lat":37.2367,"lng":-3.570686},{"id":46022,"name":"Alfafar","province":"València/Valencia","lat":39.422598,"lng":-0.390044},{"id":3010,"name":"Alfafara","province":"Alacant/Alicante","lat":38.77301,"lng":-0.555594},{"id":50017,"name":"Alfajarín","province":"Zaragoza","lat":41.614823,"lng":-0.702707},{"id":44016,"name":"Alfambra","province":"Teruel","lat":40.547503,"lng":-1.032885},{"id":50018,"name":"Alfamén","province":"Zaragoza","lat":41.440511,"lng":-1.244778},{"id":22020,"name":"Alfántega","province":"Huesca","lat":41.827975,"lng":0.146762},{"id":43008,"name":"Alfara de Carles","province":"Tarragona","lat":40.872901,"lng":0.400314},{"id":46024,"name":"Alfara de la Baronia","province":"València/Valencia","lat":39.762674,"lng":-0.354966},{"id":46025,"name":"Alfara del Patriarca","province":"València/Valencia","lat":39.544093,"lng":-0.386003},{"id":49005,"name":"Alfaraz de Sayago","province":"Zamora","lat":41.227842,"lng":-5.984341},{"id":46026,"name":"Alfarb","province":"València/Valencia","lat":39.277004,"lng":-0.560625},{"id":29003,"name":"Alfarnate","province":"Málaga","lat":36.995093,"lng":-4.260808},{"id":29004,"name":"Alfarnatejo","province":"Málaga","lat":36.979303,"lng":-4.272496},{"id":26011,"name":"Alfaro","province":"La Rioja","lat":42.179314,"lng":-1.750092},{"id":25013,"name":"Alfarràs","province":"Lleida","lat":41.829586,"lng":0.569745},{"id":46027,"name":"Alfarrasí","province":"València/Valencia","lat":38.905389,"lng":-0.496329},{"id":46023,"name":"Alfauir","province":"València/Valencia","lat":38.928401,"lng":-0.251469},{"id":25014,"name":"Alfés","province":"Lleida","lat":41.521445,"lng":0.619324},{"id":12007,"name":"Alfondeguilla","province":"Castelló/Castellón","lat":39.837851,"lng":-0.268656},{"id":43009,"name":"Alforja","province":"Tarragona","lat":41.210548,"lng":0.975389},{"id":50019,"name":"Alforque","province":"Zaragoza","lat":41.328026,"lng":-0.385233},{"id":27002,"name":"Alfoz","province":"Lugo","lat":43.527095,"lng":-7.418091},{"id":9011,"name":"Alfoz de Bricia","province":"Burgos","lat":42.907516,"lng":-3.84781},{"id":39001,"name":"Alfoz de Lloredo","province":"Cantabria","lat":43.378694,"lng":-4.181694},{"id":9907,"name":"Alfoz de Quintanadueñas","province":"Burgos","lat":42.384627,"lng":-3.73625},{"id":9012,"name":"Alfoz de Santa Gadea","province":"Burgos","lat":42.955307,"lng":-3.952758},{"id":24002,"name":"Algadefe","province":"León","lat":42.218844,"lng":-5.582911},{"id":7004,"name":"Algaida","province":"Illes Balears","lat":39.559391,"lng":2.894733},{"id":41008,"name":"Algámitas","province":"Sevilla","lat":37.01554,"lng":-5.149417},{"id":11003,"name":"Algar","province":"Cádiz","lat":36.655398,"lng":-5.657459},{"id":19016,"name":"Algar de Mesa","province":"Guadalajara","lat":41.134245,"lng":-1.95879},{"id":46028,"name":"Algar de Palància","province":"València/Valencia","lat":39.781376,"lng":-0.367998},{"id":18012,"name":"Algarinejo","province":"Granada","lat":37.324841,"lng":-4.1588},{"id":16013,"name":"Algarra","province":"Cuenca","lat":40.001482,"lng":-1.436545},{"id":29005,"name":"Algarrobo","province":"Málaga","lat":36.772462,"lng":-4.039127},{"id":29006,"name":"Algatocín","province":"Málaga","lat":36.572818,"lng":-5.276554},{"id":11004,"name":"Algeciras","province":"Cádiz","lat":36.131983,"lng":-5.447642},{"id":46029,"name":"Algemesí","province":"València/Valencia","lat":39.18861,"lng":-0.436801},{"id":25015,"name":"Algerri","province":"Lleida","lat":41.816175,"lng":0.638442},{"id":28009,"name":"Algete","province":"Madrid","lat":40.596254,"lng":-3.497838},{"id":46030,"name":"Algímia d'Alfara","province":"València/Valencia","lat":39.753161,"lng":-0.361492},{"id":12008,"name":"Algimia de Almonacid","province":"Castelló/Castellón","lat":39.91407,"lng":-0.44205},{"id":46031,"name":"Alginet","province":"València/Valencia","lat":39.261874,"lng":-0.46972},{"id":11005,"name":"Algodonales","province":"Cádiz","lat":36.880781,"lng":-5.404802},{"id":49006,"name":"Algodre","province":"Zamora","lat":41.565504,"lng":-5.604411},{"id":19017,"name":"Algora","province":"Guadalajara","lat":40.964108,"lng":-2.66666},{"id":3012,"name":"Algorfa","province":"Alacant/Alicante","lat":38.086744,"lng":-0.796325},{"id":25016,"name":"Alguaire","province":"Lleida","lat":41.736179,"lng":0.583713},{"id":30007,"name":"Alguazas","province":"Murcia","lat":38.051298,"lng":-1.241815},{"id":3013,"name":"Algueña","province":"Alacant/Alicante","lat":38.338817,"lng":-1.003219},{"id":4010,"name":"Alhabia","province":"Almería","lat":36.98955,"lng":-2.58745},{"id":4011,"name":"Alhama de Almería","province":"Almería","lat":36.957245,"lng":-2.570252},{"id":50020,"name":"Alhama de Aragón","province":"Zaragoza","lat":41.296643,"lng":-1.89409},{"id":18013,"name":"Alhama de Granada","province":"Granada","lat":37.002562,"lng":-3.987887},{"id":30008,"name":"Alhama de Murcia","province":"Murcia","lat":37.851511,"lng":-1.426431},{"id":13010,"name":"Alhambra","province":"Ciudad Real","lat":38.899609,"lng":-3.053446},{"id":29007,"name":"Alhaurín de la Torre","province":"Málaga","lat":36.661666,"lng":-4.565559},{"id":29008,"name":"Alhaurín el Grande","province":"Málaga","lat":36.641919,"lng":-4.691613},{"id":18014,"name":"Alhendín","province":"Granada","lat":37.107925,"lng":-3.645936},{"id":19018,"name":"Alhóndiga","province":"Guadalajara","lat":40.525176,"lng":-2.824864},{"id":10017,"name":"Alía","province":"Cáceres","lat":39.447882,"lng":-5.216577},{"id":44017,"name":"Aliaga","province":"Teruel","lat":40.674725,"lng":-0.70228},{"id":16014,"name":"Aliaguilla","province":"Cuenca","lat":39.740642,"lng":-1.325588},{"id":4012,"name":"Alicún","province":"Almería","lat":36.966272,"lng":-2.602111},{"id":18015,"name":"Alicún de Ortega","province":"Granada","lat":37.60804,"lng":-3.137389},{"id":24003,"name":"Alija del Infantado","province":"León","lat":42.140878,"lng":-5.829778},{"id":25017,"name":"Alins","province":"Lleida","lat":42.548423,"lng":1.317331},{"id":43010,"name":"Alió","province":"Tarragona","lat":41.295161,"lng":1.306419},{"id":19019,"name":"Alique","province":"Guadalajara","lat":40.586332,"lng":-2.643975},{"id":10018,"name":"Aliseda","province":"Cáceres","lat":39.420755,"lng":-6.692075},{"id":42016,"name":"Aliud","province":"Soria","lat":41.654775,"lng":-2.253248},{"id":21002,"name":"Aljaraque","province":"Huelva","lat":37.271025,"lng":-7.021549},{"id":6009,"name":"Aljucén","province":"Badajoz","lat":39.04396,"lng":-6.331093},{"id":20006,"name":"Alkiza","province":"Gipuzkoa","lat":43.173006,"lng":-2.109068},{"id":33001,"name":"Allande","province":"Asturias","lat":43.271356,"lng":-6.610625},{"id":32001,"name":"Allariz","province":"Ourense","lat":42.190169,"lng":-7.801553},{"id":44021,"name":"Allepuz","province":"Teruel","lat":40.49207,"lng":-0.728104},{"id":33002,"name":"Aller","province":"Asturias","lat":43.161048,"lng":-5.62242},{"id":31011,"name":"Allín/Allin","province":"Navarra","lat":42.708482,"lng":-2.075931},{"id":31012,"name":"Allo","province":"Navarra","lat":42.567861,"lng":-2.019625},{"id":44022,"name":"Alloza","province":"Teruel","lat":40.967572,"lng":-0.530074},{"id":44023,"name":"Allueva","province":"Teruel","lat":40.986208,"lng":-1.043459},{"id":25019,"name":"Almacelles","province":"Lleida","lat":41.731456,"lng":0.436876},{"id":29009,"name":"Almáchar","province":"Málaga","lat":36.808707,"lng":-4.217352},{"id":13011,"name":"Almadén","province":"Ciudad Real","lat":38.7755,"lng":-4.836425},{"id":41009,"name":"Almadén de la Plata","province":"Sevilla","lat":37.873524,"lng":-6.079928},{"id":13012,"name":"Almadenejos","province":"Ciudad Real","lat":38.738587,"lng":-4.71224},{"id":19020,"name":"Almadrones","province":"Guadalajara","lat":40.901765,"lng":-2.774445},{"id":13013,"name":"Almagro","province":"Ciudad Real","lat":38.888766,"lng":-3.710884},{"id":42017,"name":"Almajano","province":"Soria","lat":41.851155,"lng":-2.338537},{"id":42018,"name":"Almaluez","province":"Soria","lat":41.289185,"lng":-2.269326},{"id":2009,"name":"Almansa","province":"Albacete","lat":38.87007,"lng":-1.093667},{"id":24004,"name":"Almanza","province":"León","lat":42.656457,"lng":-5.035516},{"id":10019,"name":"Almaraz","province":"Cáceres","lat":39.814448,"lng":-5.677036},{"id":49007,"name":"Almaraz de Duero","province":"Zamora","lat":41.474188,"lng":-5.914829},{"id":29010,"name":"Almargen","province":"Málaga","lat":37.004001,"lng":-5.021044},{"id":42019,"name":"Almarza","province":"Soria","lat":41.946924,"lng":-2.468475},{"id":26012,"name":"Almarza de Cameros","province":"La Rioja","lat":42.216072,"lng":-2.597748},{"id":46032,"name":"Almàssera","province":"València/Valencia","lat":39.511854,"lng":-0.355873},{"id":12009,"name":"Almassora","province":"Castelló/Castellón","lat":39.945267,"lng":-0.063315},{"id":25020,"name":"Almatret","province":"Lleida","lat":41.305633,"lng":0.423618},{"id":42020,"name":"Almazán","province":"Soria","lat":41.487283,"lng":-2.533458},{"id":42021,"name":"Almazul","province":"Soria","lat":41.574143,"lng":-2.146771},{"id":12010,"name":"Almedíjar","province":"Castelló/Castellón","lat":39.872864,"lng":-0.408309},{"id":13014,"name":"Almedina","province":"Ciudad Real","lat":38.624184,"lng":-2.955066},{"id":14004,"name":"Almedinilla","province":"Córdoba","lat":37.438897,"lng":-4.090895},{"id":18016,"name":"Almegíjar","province":"Granada","lat":36.902519,"lng":-3.299647},{"id":49008,"name":"Almeida de Sayago","province":"Zamora","lat":41.26614,"lng":-6.074672},{"id":25021,"name":"Almenar","province":"Lleida","lat":41.797914,"lng":0.567667},{"id":42022,"name":"Almenar de Soria","province":"Soria","lat":41.681975,"lng":-2.200625},{"id":12011,"name":"Almenara","province":"Castelló/Castellón","lat":39.751504,"lng":-0.223281},{"id":47008,"name":"Almenara de Adaja","province":"Valladolid","lat":41.213815,"lng":-4.676702},{"id":37027,"name":"Almenara de Tormes","province":"Salamanca","lat":41.064141,"lng":-5.823359},{"id":37028,"name":"Almendra","province":"Salamanca","lat":41.229727,"lng":-6.341074},{"id":6010,"name":"Almendral","province":"Badajoz","lat":38.614185,"lng":-6.82285},{"id":45011,"name":"Almendral de la Cañada","province":"Toledo","lat":40.183498,"lng":-4.740636},{"id":6011,"name":"Almendralejo","province":"Badajoz","lat":38.68474,"lng":-6.40684},{"id":16016,"name":"Almendros","province":"Cuenca","lat":39.920754,"lng":-2.884555},{"id":41010,"name":"Almensilla","province":"Sevilla","lat":37.309185,"lng":-6.113866},{"id":4013,"name":"Almería","province":"Almería","lat":36.840113,"lng":-2.467672},{"id":46033,"name":"Almiserà","province":"València/Valencia","lat":38.915371,"lng":-0.285785},{"id":50021,"name":"Almochuel","province":"Zaragoza","lat":41.280185,"lng":-0.550027},{"id":4014,"name":"Almócita","province":"Almería","lat":37.002768,"lng":-2.790361},{"id":13015,"name":"Almodóvar del Campo","province":"Ciudad Real","lat":38.709273,"lng":-4.179948},{"id":16017,"name":"Almodóvar del Pinar","province":"Cuenca","lat":39.725757,"lng":-1.902063},{"id":14005,"name":"Almodóvar del Río","province":"Córdoba","lat":37.809775,"lng":-5.019702},{"id":29011,"name":"Almogía","province":"Málaga","lat":36.825392,"lng":-4.540497},{"id":19021,"name":"Almoguera","province":"Guadalajara","lat":40.297663,"lng":-2.98187},{"id":44018,"name":"Almohaja","province":"Teruel","lat":40.605455,"lng":-1.437913},{"id":10020,"name":"Almoharín","province":"Cáceres","lat":39.176215,"lng":-6.04407},{"id":46034,"name":"Almoines","province":"València/Valencia","lat":38.943328,"lng":-0.181946},{"id":50023,"name":"Almonacid de la Cuba","province":"Zaragoza","lat":41.28011,"lng":-0.793125},{"id":50024,"name":"Almonacid de la Sierra","province":"Zaragoza","lat":41.397911,"lng":-1.323267},{"id":45012,"name":"Almonacid de Toledo","province":"Toledo","lat":39.752777,"lng":-3.855205},{"id":19022,"name":"Almonacid de Zorita","province":"Guadalajara","lat":40.329,"lng":-2.851939},{"id":16018,"name":"Almonacid del Marquesado","province":"Cuenca","lat":39.822739,"lng":-2.767845},{"id":21004,"name":"Almonaster la Real","province":"Huelva","lat":37.871813,"lng":-6.78759},{"id":21005,"name":"Almonte","province":"Huelva","lat":37.26231,"lng":-6.518213},{"id":3015,"name":"Almoradí","province":"Alacant/Alicante","lat":38.109787,"lng":-0.791908},{"id":45013,"name":"Almorox","province":"Toledo","lat":40.233751,"lng":-4.390752},{"id":43011,"name":"Almoster","province":"Tarragona","lat":41.198287,"lng":1.11276},{"id":3016,"name":"Almudaina","province":"Alacant/Alicante","lat":38.760931,"lng":-0.353622},{"id":22021,"name":"Almudévar","province":"Huesca","lat":42.042961,"lng":-0.583129},{"id":18017,"name":"Almuñécar","province":"Granada","lat":36.733836,"lng":-3.691157},{"id":22022,"name":"Almunia de San Juan","province":"Huesca","lat":41.935258,"lng":0.244627},{"id":22023,"name":"Almuniente","province":"Huesca","lat":41.948766,"lng":-0.412256},{"id":13016,"name":"Almuradiel","province":"Ciudad Real","lat":38.513219,"lng":-3.497368},{"id":46035,"name":"Almussafes","province":"València/Valencia","lat":39.292838,"lng":-0.413289},{"id":44019,"name":"Alobras","province":"Teruel","lat":40.181141,"lng":-1.387949},{"id":19023,"name":"Alocén","province":"Guadalajara","lat":40.574443,"lng":-2.750422},{"id":48912,"name":"Alonsotegi","province":"Bizkaia","lat":43.245085,"lng":-2.987713},{"id":29012,"name":"Álora","province":"Málaga","lat":36.822876,"lng":-4.706982},{"id":25022,"name":"Alòs de Balaguer","province":"Lleida","lat":41.912299,"lng":0.961036},{"id":21006,"name":"Alosno","province":"Huelva","lat":37.54921,"lng":-7.113968},{"id":19024,"name":"Alovera","province":"Guadalajara","lat":40.595036,"lng":-3.248201},{"id":29013,"name":"Alozaina","province":"Málaga","lat":36.728055,"lng":-4.856462},{"id":17006,"name":"Alp","province":"Girona","lat":42.373692,"lng":1.88752},{"id":29014,"name":"Alpandeire","province":"Málaga","lat":36.633377,"lng":-5.20227},{"id":42023,"name":"Alpanseque","province":"Soria","lat":41.263992,"lng":-2.670753},{"id":50026,"name":"Alpartir","province":"Zaragoza","lat":41.422521,"lng":-1.381431},{"id":28010,"name":"Alpedrete","province":"Madrid","lat":40.65887,"lng":-4.023479},{"id":44020,"name":"Alpeñés","province":"Teruel","lat":40.798857,"lng":-1.065847},{"id":8004,"name":"Alpens","province":"Barcelona","lat":42.11929,"lng":2.101098},{"id":2010,"name":"Alpera","province":"Albacete","lat":38.959504,"lng":-1.230196},{"id":25023,"name":"Alpicat","province":"Lleida","lat":41.665886,"lng":0.555575},{"id":46036,"name":"Alpuente","province":"València/Valencia","lat":39.876012,"lng":-1.01349},{"id":18904,"name":"Alpujarra de la Sierra","province":"Granada","lat":36.980902,"lng":-3.155533},{"id":22024,"name":"Alquézar","province":"Huesca","lat":42.172453,"lng":0.026691},{"id":18018,"name":"Alquife","province":"Granada","lat":37.178867,"lng":-3.115094},{"id":4015,"name":"Alsodux","province":"Almería","lat":37.001638,"lng":-2.594335},{"id":25024,"name":"Alt Àneu","province":"Lleida","lat":42.634368,"lng":1.110904},{"id":9013,"name":"Altable","province":"Burgos","lat":42.60274,"lng":-3.077499},{"id":43012,"name":"Altafulla","province":"Tarragona","lat":41.142327,"lng":1.376853},{"id":16019,"name":"Altarejos","province":"Cuenca","lat":39.913144,"lng":-2.355345},{"id":3018,"name":"Altea","province":"Alacant/Alicante","lat":38.602187,"lng":-0.047464},{"id":22025,"name":"Altorricón","province":"Huesca","lat":41.801206,"lng":0.412948},{"id":31010,"name":"Altsasu/Alsasua","province":"Navarra","lat":42.894974,"lng":-2.168818},{"id":12012,"name":"Altura","province":"Castelló/Castellón","lat":39.851434,"lng":-0.510642},{"id":20906,"name":"Altzaga","province":"Gipuzkoa","lat":43.064589,"lng":-2.153832},{"id":20007,"name":"Altzo","province":"Gipuzkoa","lat":43.09983,"lng":-2.083473},{"id":19027,"name":"Alustante","province":"Guadalajara","lat":40.616083,"lng":-1.658532},{"id":46017,"name":"Alzira","province":"València/Valencia","lat":39.152253,"lng":-0.440973},{"id":5012,"name":"Amavida","province":"Ávila","lat":40.572114,"lng":-5.06224},{"id":34009,"name":"Amayuelas de Arriba","province":"Palencia","lat":42.210869,"lng":-4.488893},{"id":50027,"name":"Ambel","province":"Zaragoza","lat":41.794889,"lng":-1.616036},{"id":28011,"name":"Ambite","province":"Madrid","lat":40.328997,"lng":-3.181565},{"id":17007,"name":"Amer","province":"Girona","lat":42.009099,"lng":2.603318},{"id":15002,"name":"Ames","province":"A Coruña","lat":42.859455,"lng":-8.650329},{"id":31013,"name":"Améscoa Baja","province":"Navarra","lat":42.772586,"lng":-2.133507},{"id":9016,"name":"Ameyugo","province":"Burgos","lat":42.656031,"lng":-3.061631},{"id":20008,"name":"Amezketa","province":"Gipuzkoa","lat":43.048842,"lng":-2.088261},{"id":33003,"name":"Amieva","province":"Asturias","lat":43.245155,"lng":-5.072537},{"id":32002,"name":"Amoeiro","province":"Ourense","lat":42.414761,"lng":-7.947326},{"id":48003,"name":"Amorebieta-Etxano","province":"Bizkaia","lat":43.220301,"lng":-2.732118},{"id":48004,"name":"Amoroto","province":"Bizkaia","lat":43.325949,"lng":-2.513445},{"id":43014,"name":"Amposta","province":"Tarragona","lat":40.713507,"lng":0.580918},{"id":34010,"name":"Ampudia","province":"Palencia","lat":41.915814,"lng":-4.780883},{"id":39002,"name":"Ampuero","province":"Cantabria","lat":43.342389,"lng":-3.417417},{"id":1002,"name":"Amurrio","province":"Araba/Álava","lat":43.052658,"lng":-3.001015},{"id":34011,"name":"Amusco","province":"Palencia","lat":42.172857,"lng":-4.469673},{"id":47009,"name":"Amusquillo","province":"Valladolid","lat":41.74888,"lng":-4.302139},{"id":44024,"name":"Anadón","province":"Teruel","lat":40.982699,"lng":-0.983372},{"id":1049,"name":"Añana","province":"Araba/Álava","lat":42.802371,"lng":-2.986523},{"id":40017,"name":"Anaya","province":"Segovia","lat":40.991107,"lng":-4.308108},{"id":37029,"name":"Anaya de Alba","province":"Salamanca","lat":40.728532,"lng":-5.492465},{"id":28012,"name":"Anchuelo","province":"Madrid","lat":40.465517,"lng":-3.268668},{"id":13017,"name":"Anchuras","province":"Ciudad Real","lat":39.479793,"lng":-4.836028},{"id":31014,"name":"Ancín/Antzin","province":"Navarra","lat":42.661234,"lng":-2.190101},{"id":49009,"name":"Andavías","province":"Zamora","lat":41.594921,"lng":-5.85696},{"id":46038,"name":"Andilla","province":"València/Valencia","lat":39.836355,"lng":-0.813436},{"id":20009,"name":"Andoain","province":"Gipuzkoa","lat":43.219425,"lng":-2.019983},{"id":44025,"name":"Andorra","province":"Teruel","lat":40.974975,"lng":-0.444052},{"id":31015,"name":"Andosilla","province":"Navarra","lat":42.377833,"lng":-1.942067},{"id":7005,"name":"Andratx","province":"Illes Balears","lat":39.576309,"lng":2.424554},{"id":23005,"name":"Andújar","province":"Jaén","lat":38.036577,"lng":-4.054383},{"id":40018,"name":"Añe","province":"Segovia","lat":41.038131,"lng":-4.296398},{"id":50028,"name":"Anento","province":"Zaragoza","lat":41.068881,"lng":-1.334248},{"id":17008,"name":"Anglès","province":"Girona","lat":41.95661,"lng":2.639828},{"id":25027,"name":"Anglesola","province":"Lleida","lat":41.658997,"lng":1.081437},{"id":19031,"name":"Angón","province":"Guadalajara","lat":41.066755,"lng":-2.853995},{"id":26013,"name":"Anguciana","province":"La Rioja","lat":42.575517,"lng":-2.902816},{"id":22027,"name":"Angüés","province":"Huesca","lat":42.111433,"lng":-0.152566},{"id":26014,"name":"Anguiano","province":"La Rioja","lat":42.261295,"lng":-2.764757},{"id":19032,"name":"Anguita","province":"Guadalajara","lat":41.02563,"lng":-2.36927},{"id":9017,"name":"Anguix","province":"Burgos","lat":41.753436,"lng":-3.932614},{"id":39003,"name":"Anievas","province":"Cantabria","lat":43.202611,"lng":-4.007278},{"id":50029,"name":"Aniñón","province":"Zaragoza","lat":41.445807,"lng":-1.704685},{"id":46039,"name":"Anna","province":"València/Valencia","lat":39.022095,"lng":-0.643661},{"id":20010,"name":"Anoeta","province":"Gipuzkoa","lat":43.161425,"lng":-2.071436},{"id":50030,"name":"Añón de Moncayo","province":"Zaragoza","lat":41.778437,"lng":-1.720173},{"id":14006,"name":"Añora","province":"Córdoba","lat":38.412219,"lng":-4.897853},{"id":31018,"name":"Añorbe","province":"Navarra","lat":42.658087,"lng":-1.714023},{"id":45014,"name":"Añover de Tajo","province":"Toledo","lat":39.989004,"lng":-3.7661},{"id":37030,"name":"Añover de Tormes","province":"Salamanca","lat":41.136277,"lng":-5.914888},{"id":19033,"name":"Anquela del Ducado","province":"Guadalajara","lat":40.969713,"lng":-2.129318},{"id":19034,"name":"Anquela del Pedregal","province":"Guadalajara","lat":40.743461,"lng":-1.736846},{"id":22028,"name":"Ansó","province":"Huesca","lat":42.755648,"lng":-0.828795},{"id":31016,"name":"Ansoáin/Antsoain","province":"Navarra","lat":42.833914,"lng":-1.638644},{"id":4016,"name":"Antas","province":"Almería","lat":37.2453,"lng":-1.91739},{"id":27003,"name":"Antas de Ulla","province":"Lugo","lat":42.782642,"lng":-7.890354},{"id":46040,"name":"Antella","province":"València/Valencia","lat":39.079046,"lng":-0.592301},{"id":29015,"name":"Antequera","province":"Málaga","lat":37.019443,"lng":-4.562459},{"id":35003,"name":"Antigua","province":"Las Palmas","lat":28.423442,"lng":-14.013949},{"id":34012,"name":"Antigüedad","province":"Palencia","lat":41.945279,"lng":-4.118017},{"id":22029,"name":"Antillón","province":"Huesca","lat":42.0363,"lng":-0.161824},{"id":20011,"name":"Antzuola","province":"Gipuzkoa","lat":43.09868,"lng":-2.381146},{"id":31017,"name":"Anue","province":"Navarra","lat":42.960695,"lng":-1.617221},{"id":31019,"name":"Aoiz/Agoitz","province":"Navarra","lat":42.785849,"lng":-1.367873},{"id":37031,"name":"Arabayona de Mógica","province":"Salamanca","lat":41.046902,"lng":-5.383459},{"id":21007,"name":"Aracena","province":"Huelva","lat":37.892019,"lng":-6.559441},{"id":38004,"name":"Arafo","province":"Santa Cruz de Tenerife","lat":28.340186,"lng":-16.418491},{"id":22032,"name":"Aragüés del Puerto","province":"Huesca","lat":42.705917,"lng":-0.671661},{"id":41011,"name":"Arahal","province":"Sevilla","lat":37.262487,"lng":-5.545296},{"id":40019,"name":"Arahuetes","province":"Segovia","lat":41.137646,"lng":-3.85682},{"id":31020,"name":"Araitz","province":"Navarra","lat":43.034863,"lng":-1.983966},{"id":48005,"name":"Arakaldo","province":"Bizkaia","lat":43.153443,"lng":-2.933967},{"id":31025,"name":"Arakil","province":"Navarra","lat":42.924927,"lng":-1.864018},{"id":20012,"name":"Arama","province":"Gipuzkoa","lat":43.063346,"lng":-2.165593},{"id":1003,"name":"Aramaio","province":"Araba/Álava","lat":43.052579,"lng":-2.564829},{"id":31021,"name":"Aranarache/Aranaratxe","province":"Navarra","lat":42.779053,"lng":-2.228617},{"id":42024,"name":"Arancón","province":"Soria","lat":41.800151,"lng":-2.280924},{"id":9018,"name":"Aranda de Duero","province":"Burgos","lat":41.670191,"lng":-3.689688},{"id":50031,"name":"Aranda de Moncayo","province":"Zaragoza","lat":41.577653,"lng":-1.791539},{"id":50032,"name":"Arándiga","province":"Zaragoza","lat":41.510597,"lng":-1.501961},{"id":9019,"name":"Arandilla","province":"Burgos","lat":41.737854,"lng":-3.428805},{"id":16020,"name":"Arandilla del Arroyo","province":"Cuenca","lat":40.511152,"lng":-2.384712},{"id":15003,"name":"Aranga","province":"A Coruña","lat":43.23404,"lng":-8.016029},{"id":31023,"name":"Aranguren","province":"Navarra","lat":42.789057,"lng":-1.535428},{"id":28013,"name":"Aranjuez","province":"Madrid","lat":40.032192,"lng":-3.603525},{"id":31024,"name":"Arano","province":"Navarra","lat":43.199409,"lng":-1.895172},{"id":31022,"name":"Arantza","province":"Navarra","lat":43.196477,"lng":-1.726376},{"id":48006,"name":"Arantzazu","province":"Bizkaia","lat":43.156783,"lng":-2.791589},{"id":12013,"name":"Arañuel","province":"Castelló/Castellón","lat":40.071579,"lng":-0.48199},{"id":19036,"name":"Aranzueque","province":"Guadalajara","lat":40.492535,"lng":-3.076986},{"id":37032,"name":"Arapiles","province":"Salamanca","lat":40.893666,"lng":-5.645952},{"id":31026,"name":"Aras","province":"Navarra","lat":42.562276,"lng":-2.354954},{"id":46041,"name":"Aras de los Olmos","province":"València/Valencia","lat":39.924558,"lng":-1.132833},{"id":9020,"name":"Arauzo de Miel","province":"Burgos","lat":41.860048,"lng":-3.387285},{"id":9021,"name":"Arauzo de Salce","province":"Burgos","lat":41.819492,"lng":-3.412254},{"id":9022,"name":"Arauzo de Torre","province":"Burgos","lat":41.797687,"lng":-3.423093},{"id":19037,"name":"Arbancón","province":"Guadalajara","lat":40.964098,"lng":-3.115544},{"id":25029,"name":"Arbeca","province":"Lleida","lat":41.542299,"lng":0.924916},{"id":19038,"name":"Arbeteta","province":"Guadalajara","lat":40.669595,"lng":-2.403202},{"id":31027,"name":"Arbizu","province":"Navarra","lat":42.914063,"lng":-2.039418},{"id":36001,"name":"Arbo","province":"Pontevedra","lat":42.110721,"lng":-8.312808},{"id":4017,"name":"Arboleas","province":"Almería","lat":37.350375,"lng":-2.074677},{"id":43015,"name":"Arbolí","province":"Tarragona","lat":41.242168,"lng":0.948658},{"id":17009,"name":"Arbúcies","province":"Girona","lat":41.816949,"lng":2.514022},{"id":16905,"name":"Arcas","province":"Cuenca","lat":39.988643,"lng":-2.114444},{"id":31028,"name":"Arce/Artzi","province":"Navarra","lat":42.852402,"lng":-1.375256},{"id":37033,"name":"Arcediano","province":"Salamanca","lat":41.093351,"lng":-5.560698},{"id":49010,"name":"Arcenillas","province":"Zamora","lat":41.456497,"lng":-5.686002},{"id":30009,"name":"Archena","province":"Murcia","lat":38.114164,"lng":-1.298716},{"id":29016,"name":"Árchez","province":"Málaga","lat":36.838789,"lng":-3.991621},{"id":29017,"name":"Archidona","province":"Málaga","lat":37.094813,"lng":-4.390918},{"id":45015,"name":"Arcicóllar","province":"Toledo","lat":40.055159,"lng":-4.115964},{"id":34015,"name":"Arconada","province":"Palencia","lat":42.328819,"lng":-4.496472},{"id":40020,"name":"Arcones","province":"Segovia","lat":41.118089,"lng":-3.724493},{"id":9023,"name":"Arcos","province":"Burgos","lat":42.264808,"lng":-3.756403},{"id":42025,"name":"Arcos de Jalón","province":"Soria","lat":41.216304,"lng":-2.274246},{"id":11006,"name":"Arcos de la Frontera","province":"Cádiz","lat":36.748154,"lng":-5.806768},{"id":49011,"name":"Arcos de la Polvorosa","province":"Zamora","lat":41.945045,"lng":-5.697507},{"id":16022,"name":"Arcos de la Sierra","province":"Cuenca","lat":40.347016,"lng":-2.112964},{"id":44026,"name":"Arcos de las Salinas","province":"Teruel","lat":39.992489,"lng":-1.043},{"id":29018,"name":"Ardales","province":"Málaga","lat":36.877959,"lng":-4.846525},{"id":50033,"name":"Ardisa","province":"Zaragoza","lat":42.201193,"lng":-0.757484},{"id":24006,"name":"Ardón","province":"León","lat":42.437692,"lng":-5.563497},{"id":48093,"name":"Areatza","province":"Bizkaia","lat":43.120756,"lng":-2.767813},{"id":31030,"name":"Arellano","province":"Navarra","lat":42.606453,"lng":-2.046822},{"id":22035,"name":"Arén","province":"Huesca","lat":42.257573,"lng":0.721805},{"id":13903,"name":"Arenales de San Gregorio","province":"Ciudad Real","lat":39.30852,"lng":-3.025126},{"id":29019,"name":"Arenas","province":"Málaga","lat":36.816668,"lng":-4.047138},{"id":39004,"name":"Arenas de Iguña","province":"Cantabria","lat":43.185583,"lng":-4.048806},{"id":13018,"name":"Arenas de San Juan","province":"Ciudad Real","lat":39.219802,"lng":-3.502975},{"id":5014,"name":"Arenas de San Pedro","province":"Ávila","lat":40.209044,"lng":-5.090527},{"id":18020,"name":"Arenas del Rey","province":"Granada","lat":36.957848,"lng":-3.894095},{"id":42026,"name":"Arenillas","province":"Soria","lat":41.34738,"lng":-2.846236},{"id":9024,"name":"Arenillas de Riopisuerga","province":"Burgos","lat":42.357643,"lng":-4.23408},{"id":44027,"name":"Arens de Lledó","province":"Teruel","lat":40.992532,"lng":0.270928},{"id":8006,"name":"Arenys de Mar","province":"Barcelona","lat":41.579494,"lng":2.551706},{"id":8007,"name":"Arenys de Munt","province":"Barcelona","lat":41.611399,"lng":2.539479},{"id":26015,"name":"Arenzana de Abajo","province":"La Rioja","lat":42.386633,"lng":-2.71927},{"id":26016,"name":"Arenzana de Arriba","province":"La Rioja","lat":42.387546,"lng":-2.694217},{"id":15004,"name":"Ares","province":"A Coruña","lat":43.426559,"lng":-8.24366},{"id":12014,"name":"Ares del Maestrat","province":"Castelló/Castellón","lat":40.456378,"lng":-0.131781},{"id":31031,"name":"Areso","province":"Navarra","lat":43.081138,"lng":-1.951984},{"id":20013,"name":"Aretxabaleta","province":"Gipuzkoa","lat":43.036457,"lng":-2.504467},{"id":5015,"name":"Arevalillo","province":"Ávila","lat":40.586931,"lng":-5.371065},{"id":40021,"name":"Arevalillo de Cega","province":"Segovia","lat":41.161508,"lng":-3.887698},{"id":5016,"name":"Arévalo","province":"Ávila","lat":41.064859,"lng":-4.720155},{"id":42027,"name":"Arévalo de la Sierra","province":"Soria","lat":41.947492,"lng":-2.400578},{"id":13019,"name":"Argamasilla de Alba","province":"Ciudad Real","lat":39.128615,"lng":-3.090097},{"id":13020,"name":"Argamasilla de Calatrava","province":"Ciudad Real","lat":38.727251,"lng":-4.078466},{"id":28014,"name":"Arganda del Rey","province":"Madrid","lat":40.300794,"lng":-3.437457},{"id":49012,"name":"Argañín","province":"Zamora","lat":41.43891,"lng":-6.209673},{"id":24007,"name":"Arganza","province":"León","lat":42.639212,"lng":-6.687778},{"id":22036,"name":"Argavieso","province":"Huesca","lat":42.053255,"lng":-0.278709},{"id":19039,"name":"Argecilla","province":"Guadalajara","lat":40.88303,"lng":-2.818119},{"id":17010,"name":"Argelaguer","province":"Girona","lat":42.215706,"lng":2.637794},{"id":12015,"name":"Argelita","province":"Castelló/Castellón","lat":40.054539,"lng":-0.35015},{"id":8008,"name":"Argençola","province":"Barcelona","lat":41.59861,"lng":1.443668},{"id":44028,"name":"Argente","province":"Teruel","lat":40.688464,"lng":-1.162851},{"id":8009,"name":"Argentona","province":"Barcelona","lat":41.555408,"lng":2.400302},{"id":45016,"name":"Argés","province":"Toledo","lat":39.80631,"lng":-4.057534},{"id":39005,"name":"Argoños","province":"Cantabria","lat":43.455639,"lng":-3.493972},{"id":31032,"name":"Arguedas","province":"Navarra","lat":42.176667,"lng":-1.598326},{"id":22037,"name":"Arguis","province":"Huesca","lat":42.314943,"lng":-0.43875},{"id":16024,"name":"Arguisuelas","province":"Cuenca","lat":39.831939,"lng":-1.820393},{"id":49013,"name":"Argujillo","province":"Zamora","lat":41.311045,"lng":-5.587399},{"id":31033,"name":"Aria","province":"Navarra","lat":42.952847,"lng":-1.265602},{"id":7901,"name":"Ariany","province":"Illes Balears","lat":39.649292,"lng":3.110537},{"id":31034,"name":"Aribe","province":"Navarra","lat":42.943891,"lng":-1.263763},{"id":38005,"name":"Arico","province":"Santa Cruz de Tenerife","lat":28.17736,"lng":-16.479139},{"id":9025,"name":"Arija","province":"Burgos","lat":42.986281,"lng":-3.96011},{"id":44029,"name":"Ariño","province":"Teruel","lat":41.030295,"lng":-0.591545},{"id":50034,"name":"Ariza","province":"Zaragoza","lat":41.310242,"lng":-2.055307},{"id":23006,"name":"Arjona","province":"Jaén","lat":37.936555,"lng":-4.055308},{"id":23007,"name":"Arjonilla","province":"Jaén","lat":37.973575,"lng":-4.106733},{"id":9026,"name":"Arlanzón","province":"Burgos","lat":42.321638,"lng":-3.46031},{"id":19040,"name":"Armallones","province":"Guadalajara","lat":40.73678,"lng":-2.30349},{"id":31035,"name":"Armañanzas","province":"Navarra","lat":42.559897,"lng":-2.285237},{"id":37035,"name":"Armenteros","province":"Salamanca","lat":40.593403,"lng":-5.448678},{"id":18021,"name":"Armilla","province":"Granada","lat":37.142822,"lng":-3.627817},{"id":1006,"name":"Armiñón","province":"Araba/Álava","lat":42.723409,"lng":-2.872271},{"id":40022,"name":"Armuña","province":"Segovia","lat":41.077622,"lng":-4.319551},{"id":4018,"name":"Armuña de Almanzora","province":"Almería","lat":37.349839,"lng":-2.411331},{"id":19041,"name":"Armuña de Tajuña","province":"Guadalajara","lat":40.531091,"lng":-3.031346},{"id":26017,"name":"Arnedillo","province":"La Rioja","lat":42.211936,"lng":-2.234959},{"id":26018,"name":"Arnedo","province":"La Rioja","lat":42.227805,"lng":-2.100121},{"id":43018,"name":"Arnes","province":"Tarragona","lat":40.909906,"lng":0.260804},{"id":39006,"name":"Arnuero","province":"Cantabria","lat":43.470444,"lng":-3.561611},{"id":21008,"name":"Aroche","province":"Huelva","lat":37.94432,"lng":-6.953942},{"id":38006,"name":"Arona","province":"Santa Cruz de Tenerife","lat":28.099991,"lng":-16.680689},{"id":49014,"name":"Arquillinos","province":"Zamora","lat":41.710124,"lng":-5.657091},{"id":23008,"name":"Arquillos","province":"Jaén","lat":38.182004,"lng":-3.431085},{"id":49015,"name":"Arrabalde","province":"Zamora","lat":42.107873,"lng":-5.893336},{"id":1037,"name":"Arraia-Maeztu","province":"Araba/Álava","lat":42.738527,"lng":-2.444299},{"id":16025,"name":"Arrancacepas","province":"Cuenca","lat":40.303376,"lng":-2.358885},{"id":48009,"name":"Arrankudiaga-Zollo","province":"Bizkaia","lat":43.168509,"lng":-2.921585},{"id":20055,"name":"Arrasate/Mondragón","province":"Gipuzkoa","lat":43.065831,"lng":-2.489836},{"id":48914,"name":"Arratzu","province":"Bizkaia","lat":43.305576,"lng":-2.640284},{"id":1008,"name":"Arratzua-Ubarrundia","province":"Araba/Álava","lat":42.889907,"lng":-2.640208},{"id":9027,"name":"Arraya de Oca","province":"Burgos","lat":42.415546,"lng":-3.397773},{"id":35004,"name":"Arrecife","province":"Las Palmas","lat":28.959427,"lng":-13.546661},{"id":39007,"name":"Arredondo","province":"Cantabria","lat":43.274556,"lng":-3.6015},{"id":25031,"name":"Arres","province":"Lleida","lat":42.754762,"lng":0.711115},{"id":29020,"name":"Arriate","province":"Málaga","lat":36.795647,"lng":-5.138013},{"id":48010,"name":"Arrieta","province":"Bizkaia","lat":43.341925,"lng":-2.76898},{"id":48011,"name":"Arrigorriaga","province":"Bizkaia","lat":43.205913,"lng":-2.887721},{"id":13021,"name":"Arroba de los Montes","province":"Ciudad Real","lat":39.153452,"lng":-4.544089},{"id":31036,"name":"Arróniz","province":"Navarra","lat":42.589001,"lng":-2.091116},{"id":47010,"name":"Arroyo de la Encomienda","province":"Valladolid","lat":41.626215,"lng":-4.773298},{"id":10021,"name":"Arroyo de la Luz","province":"Cáceres","lat":39.483686,"lng":-6.58481},{"id":19042,"name":"Arroyo de las Fraguas","province":"Guadalajara","lat":41.103041,"lng":-3.131401},{"id":6012,"name":"Arroyo de San Serván","province":"Badajoz","lat":38.856891,"lng":-6.454472},{"id":23905,"name":"Arroyo del Ojanco","province":"Jaén","lat":38.320949,"lng":-2.894939},{"id":10023,"name":"Arroyomolinos","province":"Cáceres","lat":39.185464,"lng":-6.163224},{"id":28015,"name":"Arroyomolinos","province":"Madrid","lat":40.26771,"lng":-3.920199},{"id":10022,"name":"Arroyomolinos de la Vera","province":"Cáceres","lat":40.052914,"lng":-5.855168},{"id":21009,"name":"Arroyomolinos de León","province":"Huelva","lat":38.024724,"lng":-6.423975},{"id":31037,"name":"Arruazu","province":"Navarra","lat":42.921993,"lng":-1.998801},{"id":26019,"name":"Arrúbal","province":"La Rioja","lat":42.43564,"lng":-2.251388},{"id":25032,"name":"Arsèguel","province":"Lleida","lat":42.350697,"lng":1.582732},{"id":7006,"name":"Artà","province":"Illes Balears","lat":39.695158,"lng":3.351303},{"id":31038,"name":"Artajona","province":"Navarra","lat":42.590044,"lng":-1.764299},{"id":12016,"name":"Artana","province":"Castelló/Castellón","lat":39.891339,"lng":-0.257938},{"id":31039,"name":"Artazu","province":"Navarra","lat":42.6921,"lng":-1.839046},{"id":48023,"name":"Artea","province":"Bizkaia","lat":43.132628,"lng":-2.782605},{"id":15005,"name":"Arteixo","province":"A Coruña","lat":43.304745,"lng":-8.50507},{"id":35005,"name":"Artenara","province":"Las Palmas","lat":28.020265,"lng":-15.646296},{"id":8010,"name":"Artés","province":"Barcelona","lat":41.798149,"lng":1.955128},{"id":25033,"name":"Artesa de Lleida","province":"Lleida","lat":41.551717,"lng":0.703262},{"id":25034,"name":"Artesa de Segre","province":"Lleida","lat":41.895404,"lng":1.045499},{"id":50035,"name":"Artieda","province":"Zaragoza","lat":42.586559,"lng":-0.983994},{"id":48008,"name":"Artzentales","province":"Bizkaia","lat":43.251348,"lng":-3.221602},{"id":1004,"name":"Artziniega","province":"Araba/Álava","lat":43.121792,"lng":-3.130521},{"id":35006,"name":"Arucas","province":"Las Palmas","lat":28.11861,"lng":-15.52538},{"id":15006,"name":"Arzúa","province":"A Coruña","lat":42.926926,"lng":-8.164047},{"id":36034,"name":"As Neves","province":"Pontevedra","lat":42.08835,"lng":-8.415415},{"id":27037,"name":"As Nogais","province":"Lugo","lat":42.809158,"lng":-7.109326},{"id":15070,"name":"As Pontes de García Rodríguez","province":"A Coruña","lat":43.450914,"lng":-7.852924},{"id":15081,"name":"As Somozas","province":"A Coruña","lat":43.534783,"lng":-7.943973},{"id":43019,"name":"Ascó","province":"Tarragona","lat":41.180967,"lng":0.567194},{"id":50036,"name":"Asín","province":"Zaragoza","lat":42.283506,"lng":-1.046733},{"id":25036,"name":"Aspa","province":"Lleida","lat":41.495378,"lng":0.67229},{"id":49016,"name":"Aspariegos","province":"Zamora","lat":41.674344,"lng":-5.599573},{"id":1009,"name":"Asparrena","province":"Araba/Álava","lat":42.889624,"lng":-2.317426},{"id":3019,"name":"Aspe","province":"Alacant/Alicante","lat":38.346088,"lng":-0.76898},{"id":20014,"name":"Asteasu","province":"Gipuzkoa","lat":43.19336,"lng":-2.09703},{"id":20903,"name":"Astigarraga","province":"Gipuzkoa","lat":43.279984,"lng":-1.949216},{"id":24008,"name":"Astorga","province":"León","lat":42.454196,"lng":-6.052964},{"id":34017,"name":"Astudillo","province":"Palencia","lat":42.192574,"lng":-4.293493},{"id":49017,"name":"Asturianos","province":"Zamora","lat":42.051277,"lng":-6.487552},{"id":29021,"name":"Atajate","province":"Málaga","lat":36.640111,"lng":-5.245126},{"id":6013,"name":"Atalaya","province":"Badajoz","lat":38.333456,"lng":-6.475422},{"id":16026,"name":"Atalaya del Cañavate","province":"Cuenca","lat":39.518055,"lng":-2.252615},{"id":19043,"name":"Atanzón","province":"Guadalajara","lat":40.666226,"lng":-2.997864},{"id":9029,"name":"Atapuerca","province":"Burgos","lat":42.376202,"lng":-3.508065},{"id":47011,"name":"Ataquines","province":"Valladolid","lat":41.181519,"lng":-4.805476},{"id":18022,"name":"Atarfe","province":"Granada","lat":37.222705,"lng":-3.686501},{"id":20015,"name":"Ataun","province":"Gipuzkoa","lat":43.007041,"lng":-2.176705},{"id":50037,"name":"Atea","province":"Zaragoza","lat":41.159963,"lng":-1.554773},{"id":50038,"name":"Ateca","province":"Zaragoza","lat":41.330928,"lng":-1.791932},{"id":31040,"name":"Atetz","province":"Navarra","lat":42.939637,"lng":-1.709931},{"id":19044,"name":"Atienza","province":"Guadalajara","lat":41.199975,"lng":-2.871013},{"id":48091,"name":"Atxondo","province":"Bizkaia","lat":43.129243,"lng":-2.584817},{"id":46003,"name":"Atzeneta d'Albaida","province":"València/Valencia","lat":38.835899,"lng":-0.495903},{"id":12001,"name":"Atzeneta del Maestrat","province":"Castelló/Castellón","lat":40.216446,"lng":-0.170635},{"id":48070,"name":"Aulesti","province":"Bizkaia","lat":43.297257,"lng":-2.562474},{"id":19045,"name":"Auñón","province":"Guadalajara","lat":40.516784,"lng":-2.79105},{"id":31058,"name":"Auritz/Burguete","province":"Navarra","lat":42.989426,"lng":-1.335654},{"id":26020,"name":"Ausejo","province":"La Rioja","lat":42.345687,"lng":-2.170089},{"id":42028,"name":"Ausejo de la Sierra","province":"Soria","lat":41.895135,"lng":-2.374321},{"id":34018,"name":"Autilla del Pino","province":"Palencia","lat":41.991613,"lng":-4.63256},{"id":34019,"name":"Autillo de Campos","province":"Palencia","lat":42.088103,"lng":-4.831968},{"id":26021,"name":"Autol","province":"La Rioja","lat":42.215427,"lng":-2.006641},{"id":5017,"name":"Aveinte","province":"Ávila","lat":40.783107,"lng":-4.837249},{"id":5018,"name":"Avellaneda","province":"Ávila","lat":40.388295,"lng":-5.388419},{"id":9032,"name":"Avellanosa de Muñó","province":"Burgos","lat":41.983107,"lng":-3.824059},{"id":8011,"name":"Avià","province":"Barcelona","lat":42.07727,"lng":1.82284},{"id":5019,"name":"Ávila","province":"Ávila","lat":40.65681,"lng":-4.700065},{"id":33004,"name":"Avilés","province":"Asturias","lat":43.555693,"lng":-5.92189},{"id":8012,"name":"Avinyó","province":"Barcelona","lat":41.863849,"lng":1.970891},{"id":17012,"name":"Avinyonet de Puigventós","province":"Girona","lat":42.24987,"lng":2.911223},{"id":8013,"name":"Avinyonet del Penedès","province":"Barcelona","lat":41.360912,"lng":1.779374},{"id":32004,"name":"Avión","province":"Ourense","lat":42.375921,"lng":-8.251439},{"id":1010,"name":"Ayala/Aiara","province":"Araba/Álava","lat":43.077921,"lng":-3.042684},{"id":21010,"name":"Ayamonte","province":"Huelva","lat":37.214332,"lng":-7.409015},{"id":31041,"name":"Ayegui/Aiegi","province":"Navarra","lat":42.656703,"lng":-2.038428},{"id":22039,"name":"Ayerbe","province":"Huesca","lat":42.277494,"lng":-0.689147},{"id":40024,"name":"Ayllón","province":"Segovia","lat":41.419709,"lng":-3.37599},{"id":2011,"name":"Ayna","province":"Albacete","lat":38.551605,"lng":-2.068875},{"id":12017,"name":"Ayódar","province":"Castelló/Castellón","lat":39.998443,"lng":-0.374959},{"id":49018,"name":"Ayoó de Vidriales","province":"Zamora","lat":42.129576,"lng":-6.065606},{"id":46044,"name":"Ayora","province":"València/Valencia","lat":39.060268,"lng":-1.057467},{"id":34020,"name":"Ayuela","province":"Palencia","lat":42.627127,"lng":-4.659032},{"id":31042,"name":"Azagra","province":"Navarra","lat":42.307851,"lng":-1.894408},{"id":44031,"name":"Azaila","province":"Teruel","lat":41.29202,"lng":-0.493529},{"id":22040,"name":"Azanuy-Alins","province":"Huesca","lat":41.972242,"lng":0.311108},{"id":22041,"name":"Azara","province":"Huesca","lat":42.069707,"lng":-0.030425},{"id":20017,"name":"Azkoitia","province":"Gipuzkoa","lat":43.177656,"lng":-2.312448},{"id":22042,"name":"Azlor","province":"Huesca","lat":42.095589,"lng":-0.044928},{"id":41012,"name":"Aznalcázar","province":"Sevilla","lat":37.3035,"lng":-6.251212},{"id":41013,"name":"Aznalcóllar","province":"Sevilla","lat":37.523512,"lng":-6.269614},{"id":26022,"name":"Azofra","province":"La Rioja","lat":42.424002,"lng":-2.800939},{"id":20018,"name":"Azpeitia","province":"Gipuzkoa","lat":43.184053,"lng":-2.266048},{"id":6014,"name":"Azuaga","province":"Badajoz","lat":38.258383,"lng":-5.674423},{"id":50039,"name":"Azuara","province":"Zaragoza","lat":41.255802,"lng":-0.872636},{"id":12018,"name":"Azuébar","province":"Castelló/Castellón","lat":39.834246,"lng":-0.369457},{"id":31043,"name":"Azuelo","province":"Navarra","lat":42.608725,"lng":-2.349599},{"id":19046,"name":"Azuqueca de Henares","province":"Guadalajara","lat":40.565382,"lng":-3.268326},{"id":45017,"name":"Azután","province":"Toledo","lat":39.785965,"lng":-5.126956},{"id":37038,"name":"Babilafuente","province":"Salamanca","lat":40.977409,"lng":-5.425495},{"id":4019,"name":"Bacares","province":"Almería","lat":37.260783,"lng":-2.4534},{"id":6015,"name":"Badajoz","province":"Badajoz","lat":38.878902,"lng":-6.969699},{"id":8015,"name":"Badalona","province":"Barcelona","lat":41.450167,"lng":2.24763},{"id":26023,"name":"Badarán","province":"La Rioja","lat":42.367907,"lng":-2.808611},{"id":44032,"name":"Bádenas","province":"Teruel","lat":41.092309,"lng":-1.121402},{"id":8904,"name":"Badia del Vallès","province":"Barcelona","lat":41.508924,"lng":2.113718},{"id":41014,"name":"Badolatosa","province":"Sevilla","lat":37.308788,"lng":-4.67295},{"id":50040,"name":"Badules","province":"Zaragoza","lat":41.13869,"lng":-1.253528},{"id":22043,"name":"Baélls","province":"Huesca","lat":41.953908,"lng":0.458944},{"id":14007,"name":"Baena","province":"Córdoba","lat":37.614427,"lng":-4.326333},{"id":23009,"name":"Baeza","province":"Jaén","lat":37.993525,"lng":-3.469642},{"id":8016,"name":"Bagà","province":"Barcelona","lat":42.252627,"lng":1.861868},{"id":44033,"name":"Báguena","province":"Teruel","lat":41.040408,"lng":-1.357091},{"id":50041,"name":"Bagüés","province":"Zaragoza","lat":42.548962,"lng":-0.945852},{"id":47012,"name":"Bahabón","province":"Valladolid","lat":41.481349,"lng":-4.279161},{"id":9033,"name":"Bahabón de Esgueva","province":"Burgos","lat":41.861207,"lng":-3.7304},{"id":19047,"name":"Baides","province":"Guadalajara","lat":41.006819,"lng":-2.775769},{"id":23010,"name":"Bailén","province":"Jaén","lat":38.095993,"lng":-3.77484},{"id":22044,"name":"Bailo","province":"Huesca","lat":42.509748,"lng":-0.810916},{"id":36003,"name":"Baiona","province":"Pontevedra","lat":42.11921,"lng":-8.849618},{"id":25039,"name":"Baix Pallars","province":"Lleida","lat":42.32221,"lng":1.063227},{"id":31044,"name":"Bakaiku","province":"Navarra","lat":42.892439,"lng":-2.102119},{"id":48012,"name":"Bakio","province":"Bizkaia","lat":43.42139,"lng":-2.81421},{"id":25040,"name":"Balaguer","province":"Lleida","lat":41.789522,"lng":0.804592},{"id":4904,"name":"Balanegra","province":"Almería","lat":36.748418,"lng":-2.906287},{"id":2012,"name":"Balazote","province":"Albacete","lat":38.883711,"lng":-2.149584},{"id":24009,"name":"Balboa","province":"León","lat":42.706543,"lng":-6.924273},{"id":50042,"name":"Balconchán","province":"Zaragoza","lat":41.087408,"lng":-1.460014},{"id":22045,"name":"Baldellou","province":"Huesca","lat":41.917601,"lng":0.546497},{"id":27004,"name":"Baleira","province":"Lugo","lat":43.015457,"lng":-7.24598},{"id":8017,"name":"Balenyà","province":"Barcelona","lat":41.830977,"lng":2.239426},{"id":20904,"name":"Baliarrain","province":"Gipuzkoa","lat":43.06919,"lng":-2.127796},{"id":13022,"name":"Ballesteros de Calatrava","province":"Ciudad Real","lat":38.836643,"lng":-3.944356},{"id":22046,"name":"Ballobar","province":"Huesca","lat":41.621828,"lng":0.192518},{"id":48090,"name":"Balmaseda","province":"Bizkaia","lat":43.196324,"lng":-3.193092},{"id":3020,"name":"Balones","province":"Alacant/Alicante","lat":38.736174,"lng":-0.343383},{"id":2013,"name":"Balsa de Ves","province":"Albacete","lat":39.264403,"lng":-1.195733},{"id":8018,"name":"Balsareny","province":"Barcelona","lat":41.863249,"lng":1.876895},{"id":34022,"name":"Baltanás","province":"Palencia","lat":41.937951,"lng":-4.246442},{"id":32005,"name":"Baltar","province":"Ourense","lat":41.953755,"lng":-7.714344},{"id":26024,"name":"Bañares","province":"La Rioja","lat":42.468456,"lng":-2.911149},{"id":22047,"name":"Banastás","province":"Huesca","lat":42.18141,"lng":-0.452867},{"id":32006,"name":"Bande","province":"Ourense","lat":42.031621,"lng":-7.975272},{"id":37039,"name":"Bañobárez","province":"Salamanca","lat":40.850865,"lng":-6.61306},{"id":44034,"name":"Bañón","province":"Teruel","lat":40.839314,"lng":-1.190534},{"id":1011,"name":"Baños de Ebro/Mañueta","province":"Araba/Álava","lat":42.530235,"lng":-2.679561},{"id":23011,"name":"Baños de la Encina","province":"Jaén","lat":38.170949,"lng":-3.774256},{"id":32007,"name":"Baños de Molgas","province":"Ourense","lat":42.244728,"lng":-7.668392},{"id":10024,"name":"Baños de Montemayor","province":"Cáceres","lat":40.31772,"lng":-5.857236},{"id":26026,"name":"Baños de Río Tobía","province":"La Rioja","lat":42.334828,"lng":-2.76147},{"id":26025,"name":"Baños de Rioja","province":"La Rioja","lat":42.512483,"lng":-2.944032},{"id":19048,"name":"Baños de Tajo","province":"Guadalajara","lat":40.718409,"lng":-1.97125},{"id":9035,"name":"Baños de Valdearados","province":"Burgos","lat":41.769869,"lng":-3.554895},{"id":19049,"name":"Bañuelos","province":"Guadalajara","lat":41.286025,"lng":-2.914636},{"id":9036,"name":"Bañuelos de Bureba","province":"Burgos","lat":42.500777,"lng":-3.280739},{"id":7007,"name":"Banyalbufar","province":"Illes Balears","lat":39.687025,"lng":2.513705},{"id":3021,"name":"Banyeres de Mariola","province":"Alacant/Alicante","lat":38.716368,"lng":-0.656986},{"id":43020,"name":"Banyeres del Penedès","province":"Tarragona","lat":41.279414,"lng":1.580785},{"id":17015,"name":"Banyoles","province":"Girona","lat":42.116408,"lng":2.763804},{"id":34024,"name":"Baquerín de Campos","province":"Palencia","lat":42.016343,"lng":-4.782132},{"id":16027,"name":"Barajas de Melo","province":"Cuenca","lat":40.122968,"lng":-2.916934},{"id":48013,"name":"Barakaldo","province":"Bizkaia","lat":43.297587,"lng":-2.986094},{"id":27901,"name":"Baralla","province":"Lugo","lat":42.893861,"lng":-7.251083},{"id":31901,"name":"Barañáin/Barañain","province":"Navarra","lat":42.804726,"lng":-1.684323},{"id":42029,"name":"Baraona","province":"Soria","lat":41.295489,"lng":-2.656985},{"id":31045,"name":"Barásoain","province":"Navarra","lat":42.603463,"lng":-1.646423},{"id":32008,"name":"Barbadás","province":"Ourense","lat":42.299054,"lng":-7.88747},{"id":37040,"name":"Barbadillo","province":"Salamanca","lat":40.931923,"lng":-5.881003},{"id":9037,"name":"Barbadillo de Herreros","province":"Burgos","lat":42.149128,"lng":-3.17696},{"id":9038,"name":"Barbadillo del Mercado","province":"Burgos","lat":42.03927,"lng":-3.358211},{"id":9039,"name":"Barbadillo del Pez","province":"Burgos","lat":42.118779,"lng":-3.227863},{"id":37041,"name":"Barbalos","province":"Salamanca","lat":40.676368,"lng":-5.942722},{"id":31046,"name":"Barbarin","province":"Navarra","lat":42.602024,"lng":-2.102945},{"id":22048,"name":"Barbastro","province":"Huesca","lat":42.036882,"lng":0.123379},{"id":11007,"name":"Barbate","province":"Cádiz","lat":36.192877,"lng":-5.918877},{"id":25041,"name":"Barbens","province":"Lleida","lat":41.679118,"lng":1.01853},{"id":43021,"name":"Barberà de la Conca","province":"Tarragona","lat":41.410805,"lng":1.227456},{"id":8252,"name":"Barberà del Vallès","province":"Barcelona","lat":41.515544,"lng":2.124781},{"id":50043,"name":"Bárboles","province":"Zaragoza","lat":41.712626,"lng":-1.187718},{"id":40025,"name":"Barbolla","province":"Segovia","lat":41.325565,"lng":-3.67311},{"id":22049,"name":"Barbués","province":"Huesca","lat":41.979223,"lng":-0.419623},{"id":22050,"name":"Barbuñales","province":"Huesca","lat":42.026228,"lng":-0.087091},{"id":42030,"name":"Barca","province":"Soria","lat":41.455088,"lng":-2.620981},{"id":22051,"name":"Bárcabo","province":"Huesca","lat":42.242528,"lng":0.069428},{"id":6016,"name":"Barcarrota","province":"Badajoz","lat":38.513972,"lng":-6.849489},{"id":8019,"name":"Barcelona","province":"Barcelona","lat":41.38229,"lng":2.17744},{"id":34025,"name":"Bárcena de Campos","province":"Palencia","lat":42.483646,"lng":-4.499157},{"id":39009,"name":"Bárcena de Cicero","province":"Cantabria","lat":43.424611,"lng":-3.522917},{"id":39010,"name":"Bárcena de Pie de Concha","province":"Cantabria","lat":43.1255,"lng":-4.058111},{"id":37042,"name":"Barceo","province":"Salamanca","lat":41.061184,"lng":-6.453211},{"id":16029,"name":"Barchín del Hoyo","province":"Cuenca","lat":39.663539,"lng":-2.068813},{"id":47013,"name":"Barcial de la Loma","province":"Valladolid","lat":41.95161,"lng":-5.283132},{"id":49019,"name":"Barcial del Barco","province":"Zamora","lat":41.933948,"lng":-5.664356},{"id":45018,"name":"Barcience","province":"Toledo","lat":39.983131,"lng":-4.236321},{"id":42031,"name":"Barcones","province":"Soria","lat":41.291318,"lng":-2.816381},{"id":50044,"name":"Bardallur","province":"Zaragoza","lat":41.683457,"lng":-1.212418},{"id":39011,"name":"Bareyo","province":"Cantabria","lat":43.479111,"lng":-3.612028},{"id":45019,"name":"Bargas","province":"Toledo","lat":39.940589,"lng":-4.020523},{"id":31047,"name":"Bargota","province":"Navarra","lat":42.561316,"lng":-2.31213},{"id":31048,"name":"Barillas","province":"Navarra","lat":41.970157,"lng":-1.663487},{"id":24011,"name":"Barjas","province":"León","lat":42.610989,"lng":-6.978234},{"id":38007,"name":"Barlovento","province":"Santa Cruz de Tenerife","lat":28.829312,"lng":-17.803257},{"id":12020,"name":"Barracas","province":"Castelló/Castellón","lat":40.016729,"lng":-0.697747},{"id":44035,"name":"Barrachina","province":"Teruel","lat":40.89718,"lng":-1.139718},{"id":10025,"name":"Barrado","province":"Cáceres","lat":40.084179,"lng":-5.881691},{"id":2015,"name":"Barrax","province":"Albacete","lat":39.046292,"lng":-2.200772},{"id":27005,"name":"Barreiros","province":"Lugo","lat":43.540481,"lng":-7.233441},{"id":48014,"name":"Barrika","province":"Bizkaia","lat":43.407786,"lng":-2.965439},{"id":9041,"name":"Barrio de Muñó","province":"Burgos","lat":42.174475,"lng":-4.008527},{"id":19050,"name":"Barriopedro","province":"Guadalajara","lat":40.789469,"lng":-2.752832},{"id":9044,"name":"Barrios de Colina","province":"Burgos","lat":42.395737,"lng":-3.46383},{"id":36002,"name":"Barro","province":"Pontevedra","lat":42.524184,"lng":-8.637161},{"id":5023,"name":"Barromán","province":"Ávila","lat":41.064831,"lng":-4.93141},{"id":37044,"name":"Barruecopardo","province":"Salamanca","lat":41.072626,"lng":-6.665812},{"id":34027,"name":"Barruelo de Santullán","province":"Palencia","lat":42.907548,"lng":-4.287135},{"id":47014,"name":"Barruelo del Valle","province":"Valladolid","lat":41.674112,"lng":-5.069809},{"id":1013,"name":"Barrundia","province":"Araba/Álava","lat":42.917599,"lng":-2.496599},{"id":46046,"name":"Barx","province":"València/Valencia","lat":39.012622,"lng":-0.301005},{"id":46045,"name":"Barxeta","province":"València/Valencia","lat":39.022996,"lng":-0.416114},{"id":31049,"name":"Basaburua","province":"Navarra","lat":42.999488,"lng":-1.802479},{"id":40026,"name":"Basardilla","province":"Segovia","lat":41.026803,"lng":-4.025543},{"id":48015,"name":"Basauri","province":"Bizkaia","lat":43.235352,"lng":-2.891715},{"id":17016,"name":"Bàscara","province":"Girona","lat":42.159649,"lng":2.910608},{"id":9045,"name":"Basconcillos del Tozo","province":"Burgos","lat":42.701347,"lng":-3.988016},{"id":34028,"name":"Báscones de Ojeda","province":"Palencia","lat":42.670711,"lng":-4.526921},{"id":9046,"name":"Bascuñana","province":"Burgos","lat":42.42456,"lng":-3.082417},{"id":16030,"name":"Bascuñana de San Pedro","province":"Cuenca","lat":40.213982,"lng":-2.227273},{"id":25044,"name":"Bassella","province":"Lleida","lat":42.011444,"lng":1.287597},{"id":43022,"name":"Batea","province":"Tarragona","lat":41.094928,"lng":0.310767},{"id":6017,"name":"Baterno","province":"Badajoz","lat":38.95587,"lng":-4.911156},{"id":28017,"name":"Batres","province":"Madrid","lat":40.209125,"lng":-3.920789},{"id":25045,"name":"Bausen","province":"Lleida","lat":42.834837,"lng":0.715778},{"id":4020,"name":"Bayárcal","province":"Almería","lat":37.029825,"lng":-2.995079},{"id":4021,"name":"Bayarque","province":"Almería","lat":37.330001,"lng":-2.436111},{"id":42032,"name":"Bayubas de Abajo","province":"Soria","lat":41.527348,"lng":-2.896202},{"id":42033,"name":"Bayubas de Arriba","province":"Soria","lat":41.557275,"lng":-2.886793},{"id":18023,"name":"Baza","province":"Granada","lat":37.490617,"lng":-2.774311},{"id":31050,"name":"Baztan","province":"Navarra","lat":43.146732,"lng":-1.517025},{"id":44036,"name":"Bea","province":"Teruel","lat":41.035858,"lng":-1.148343},{"id":32010,"name":"Beade","province":"Ourense","lat":42.32556,"lng":-8.123278},{"id":16031,"name":"Beamud","province":"Cuenca","lat":40.186397,"lng":-1.82946},{"id":32011,"name":"Beariz","province":"Ourense","lat":42.467056,"lng":-8.273015},{"id":21011,"name":"Beas","province":"Huelva","lat":37.425944,"lng":-6.793176},{"id":18024,"name":"Beas de Granada","province":"Granada","lat":37.218673,"lng":-3.481164},{"id":18025,"name":"Beas de Guadix","province":"Granada","lat":37.279707,"lng":-3.204974},{"id":23012,"name":"Beas de Segura","province":"Jaén","lat":38.252579,"lng":-2.889852},{"id":20019,"name":"Beasain","province":"Gipuzkoa","lat":43.047293,"lng":-2.196047},{"id":5024,"name":"Becedas","province":"Ávila","lat":40.403989,"lng":-5.636507},{"id":5025,"name":"Becedillas","province":"Ávila","lat":40.537208,"lng":-5.325073},{"id":44037,"name":"Beceite","province":"Teruel","lat":40.831762,"lng":0.182513},{"id":27006,"name":"Becerreá","province":"Lugo","lat":42.853151,"lng":-7.161554},{"id":34029,"name":"Becerril de Campos","province":"Palencia","lat":42.108099,"lng":-4.640161},{"id":28018,"name":"Becerril de la Sierra","province":"Madrid","lat":40.716264,"lng":-3.989401},{"id":47015,"name":"Becilla de Valderaduey","province":"Valladolid","lat":42.097973,"lng":-5.217556},{"id":4022,"name":"Bédar","province":"Almería","lat":37.189767,"lng":-1.98183},{"id":48092,"name":"Bedia","province":"Bizkaia","lat":43.209543,"lng":-2.799936},{"id":23902,"name":"Bedmar y Garcíez","province":"Jaén","lat":37.822834,"lng":-3.411649},{"id":23014,"name":"Begíjar","province":"Jaén","lat":37.985086,"lng":-3.534383},{"id":27007,"name":"Begonte","province":"Lugo","lat":43.14996,"lng":-7.685862},{"id":8020,"name":"Begues","province":"Barcelona","lat":41.330178,"lng":1.924738},{"id":17013,"name":"Begur","province":"Girona","lat":41.954388,"lng":3.206798},{"id":31137,"name":"Beintza-Labaien","province":"Navarra","lat":43.087222,"lng":-1.743311},{"id":31051,"name":"Beire","province":"Navarra","lat":42.454818,"lng":-1.621622},{"id":4023,"name":"Beires","province":"Almería","lat":37.012531,"lng":-2.79117},{"id":20020,"name":"Beizama","province":"Gipuzkoa","lat":43.134102,"lng":-2.200202},{"id":37046,"name":"Béjar","province":"Salamanca","lat":40.387797,"lng":-5.772811},{"id":12022,"name":"Bejís","province":"Castelló/Castellón","lat":39.909713,"lng":-0.707433},{"id":14008,"name":"Belalcázar","province":"Córdoba","lat":38.578373,"lng":-5.167113},{"id":31052,"name":"Belascoáin","province":"Navarra","lat":42.755953,"lng":-1.832243},{"id":20021,"name":"Belauntza","province":"Gipuzkoa","lat":43.134792,"lng":-2.0512},{"id":9047,"name":"Belbimbre","province":"Burgos","lat":42.169109,"lng":-4.012025},{"id":50045,"name":"Belchite","province":"Zaragoza","lat":41.306716,"lng":-0.754685},{"id":37047,"name":"Beleña","province":"Salamanca","lat":40.749816,"lng":-5.628156},{"id":46047,"name":"Bèlgida","province":"València/Valencia","lat":38.859468,"lng":-0.474849},{"id":25046,"name":"Belianes","province":"Lleida","lat":41.561849,"lng":1.017681},{"id":16032,"name":"Belinchón","province":"Cuenca","lat":40.048631,"lng":-3.057855},{"id":25048,"name":"Bell-lloc d'Urgell","province":"Lleida","lat":41.62999,"lng":0.779479},{"id":25170,"name":"Bellaguarda","province":"Lleida","lat":41.336754,"lng":0.738531},{"id":17018,"name":"Bellcaire d'Empordà","province":"Girona","lat":42.080987,"lng":3.094489},{"id":25047,"name":"Bellcaire d'Urgell","province":"Lleida","lat":41.759448,"lng":0.905955},{"id":25049,"name":"Bellmunt d'Urgell","province":"Lleida","lat":41.774397,"lng":0.95259},{"id":43023,"name":"Bellmunt del Priorat","province":"Tarragona","lat":41.163986,"lng":0.765337},{"id":44039,"name":"Bello","province":"Teruel","lat":40.922106,"lng":-1.499489},{"id":8021,"name":"Bellprat","province":"Barcelona","lat":41.517238,"lng":1.434447},{"id":25050,"name":"Bellpuig","province":"Lleida","lat":41.625421,"lng":1.011693},{"id":46048,"name":"Bellreguard","province":"València/Valencia","lat":38.946424,"lng":-0.161987},{"id":46049,"name":"Bellús","province":"València/Valencia","lat":38.945857,"lng":-0.485652},{"id":43024,"name":"Bellvei","province":"Tarragona","lat":41.241339,"lng":1.576601},{"id":25051,"name":"Bellver de Cerdanya","province":"Lleida","lat":42.37076,"lng":1.774435},{"id":25052,"name":"Bellvís","province":"Lleida","lat":41.672193,"lng":0.817508},{"id":14009,"name":"Belmez","province":"Córdoba","lat":38.272417,"lng":-5.208668},{"id":23015,"name":"Bélmez de la Moraleda","province":"Jaén","lat":37.724234,"lng":-3.382341},{"id":16033,"name":"Belmonte","province":"Cuenca","lat":39.559011,"lng":-2.703997},{"id":34031,"name":"Belmonte de Campos","province":"Palencia","lat":41.94158,"lng":-4.990163},{"id":50046,"name":"Belmonte de Gracián","province":"Zaragoza","lat":41.312708,"lng":-1.537223},{"id":33005,"name":"Belmonte de Miranda","province":"Asturias","lat":43.281927,"lng":-6.217829},{"id":44038,"name":"Belmonte de San José","province":"Teruel","lat":40.874614,"lng":-0.062844},{"id":28019,"name":"Belmonte de Tajo","province":"Madrid","lat":40.133747,"lng":-3.339569},{"id":16034,"name":"Belmontejo","province":"Cuenca","lat":39.820845,"lng":-2.345404},{"id":9048,"name":"Belorado","province":"Burgos","lat":42.420288,"lng":-3.189827},{"id":22052,"name":"Belver de Cinca","province":"Huesca","lat":41.689247,"lng":0.178476},{"id":49020,"name":"Belver de los Montes","province":"Zamora","lat":41.723027,"lng":-5.449674},{"id":45020,"name":"Belvís de la Jara","province":"Toledo","lat":39.759664,"lng":-4.949518},{"id":10026,"name":"Belvís de Monroy","province":"Cáceres","lat":39.819326,"lng":-5.610325},{"id":24014,"name":"Bembibre","province":"León","lat":42.614803,"lng":-6.416295},{"id":22053,"name":"Benabarre","province":"Huesca","lat":42.106019,"lng":0.481322},{"id":41015,"name":"Benacazón","province":"Sevilla","lat":37.353374,"lng":-6.19881},{"id":29022,"name":"Benadalid","province":"Málaga","lat":36.605857,"lng":-5.268926},{"id":47016,"name":"Benafarces","province":"Valladolid","lat":41.621,"lng":-5.293237},{"id":12024,"name":"Benafer","province":"Castelló/Castellón","lat":39.934427,"lng":-0.577698},{"id":12025,"name":"Benafigos","province":"Castelló/Castellón","lat":40.276588,"lng":-0.209413},{"id":46050,"name":"Benagéber","province":"València/Valencia","lat":39.707429,"lng":-1.100769},{"id":46051,"name":"Benaguasil","province":"València/Valencia","lat":39.593478,"lng":-0.584911},{"id":4024,"name":"Benahadux","province":"Almería","lat":36.925792,"lng":-2.455766},{"id":29023,"name":"Benahavís","province":"Málaga","lat":36.518636,"lng":-5.045313},{"id":29024,"name":"Benalauría","province":"Málaga","lat":36.594173,"lng":-5.261112},{"id":29025,"name":"Benalmádena","province":"Málaga","lat":36.595005,"lng":-4.573375},{"id":18027,"name":"Benalúa","province":"Granada","lat":37.350125,"lng":-3.16907},{"id":18028,"name":"Benalúa de las Villas","province":"Granada","lat":37.431682,"lng":-3.682622},{"id":11901,"name":"Benalup-Casas Viejas","province":"Cádiz","lat":36.346504,"lng":-5.812115},{"id":29026,"name":"Benamargosa","province":"Málaga","lat":36.834994,"lng":-4.194109},{"id":18029,"name":"Benamaurel","province":"Granada","lat":37.608914,"lng":-2.698784},{"id":14010,"name":"Benamejí","province":"Córdoba","lat":37.267529,"lng":-4.540485},{"id":29027,"name":"Benamocarra","province":"Málaga","lat":36.791205,"lng":-4.159999},{"id":11009,"name":"Benaocaz","province":"Cádiz","lat":36.699467,"lng":-5.421261},{"id":29028,"name":"Benaoján","province":"Málaga","lat":36.718783,"lng":-5.253091},{"id":29029,"name":"Benarrabá","province":"Málaga","lat":36.551798,"lng":-5.276504},{"id":3022,"name":"Benasau","province":"Alacant/Alicante","lat":38.690406,"lng":-0.343392},{"id":22054,"name":"Benasque","province":"Huesca","lat":42.605404,"lng":0.523846},{"id":12026,"name":"Benassal","province":"Castelló/Castellón","lat":40.379702,"lng":-0.141817},{"id":23016,"name":"Benatae","province":"Jaén","lat":38.352674,"lng":-2.650692},{"id":25053,"name":"Benavent de Segrià","province":"Lleida","lat":41.694478,"lng":0.63451},{"id":49021,"name":"Benavente","province":"Zamora","lat":42.00336,"lng":-5.677684},{"id":24015,"name":"Benavides","province":"León","lat":42.501908,"lng":-5.895932},{"id":46052,"name":"Benavites","province":"València/Valencia","lat":39.740466,"lng":-0.257782},{"id":49022,"name":"Benegiles","province":"Zamora","lat":41.626737,"lng":-5.635196},{"id":3023,"name":"Beneixama","province":"Alacant/Alicante","lat":38.699727,"lng":-0.766002},{"id":46053,"name":"Beneixida","province":"València/Valencia","lat":39.056946,"lng":-0.548877},{"id":3024,"name":"Benejúzar","province":"Alacant/Alicante","lat":38.077699,"lng":-0.837707},{"id":46054,"name":"Benetússer","province":"València/Valencia","lat":39.424063,"lng":-0.397827},{"id":3025,"name":"Benferri","province":"Alacant/Alicante","lat":38.1422,"lng":-0.961427},{"id":3026,"name":"Beniarbeig","province":"Alacant/Alicante","lat":38.822414,"lng":-0.001966},{"id":3027,"name":"Beniardà","province":"Alacant/Alicante","lat":38.683499,"lng":-0.216491},{"id":46055,"name":"Beniarjó","province":"València/Valencia","lat":38.933771,"lng":-0.186931},{"id":3028,"name":"Beniarrés","province":"Alacant/Alicante","lat":38.8199,"lng":-0.379374},{"id":46056,"name":"Beniatjar","province":"València/Valencia","lat":38.848058,"lng":-0.416842},{"id":12027,"name":"Benicarló","province":"Castelló/Castellón","lat":40.418328,"lng":0.423135},{"id":12028,"name":"Benicàssim/Benicasim","province":"Castelló/Castellón","lat":40.056066,"lng":0.064311},{"id":46057,"name":"Benicolet","province":"València/Valencia","lat":38.918644,"lng":-0.347401},{"id":46904,"name":"Benicull de Xúquer","province":"València/Valencia","lat":39.185076,"lng":-0.382372},{"id":3030,"name":"Benidoleig","province":"Alacant/Alicante","lat":38.791156,"lng":-0.030675},{"id":3031,"name":"Benidorm","province":"Alacant/Alicante","lat":38.539435,"lng":-0.128632},{"id":30010,"name":"Beniel","province":"Murcia","lat":38.046336,"lng":-1.001443},{"id":46060,"name":"Benifaió","province":"València/Valencia","lat":39.284848,"lng":-0.427105},{"id":46059,"name":"Benifairó de la Valldigna","province":"València/Valencia","lat":39.053367,"lng":-0.302822},{"id":46058,"name":"Benifairó de les Valls","province":"València/Valencia","lat":39.726581,"lng":-0.269498},{"id":43025,"name":"Benifallet","province":"Tarragona","lat":40.974094,"lng":0.517864},{"id":3032,"name":"Benifallim","province":"Alacant/Alicante","lat":38.662759,"lng":-0.399537},{"id":3033,"name":"Benifato","province":"Alacant/Alicante","lat":38.673629,"lng":-0.229182},{"id":46061,"name":"Beniflá","province":"València/Valencia","lat":38.927913,"lng":-0.188714},{"id":46062,"name":"Benigànim","province":"València/Valencia","lat":38.943715,"lng":-0.444056},{"id":3029,"name":"Benigembla","province":"Alacant/Alicante","lat":38.755881,"lng":-0.11031},{"id":3034,"name":"Benijófar","province":"Alacant/Alicante","lat":38.077779,"lng":-0.73671},{"id":3035,"name":"Benilloba","province":"Alacant/Alicante","lat":38.699554,"lng":-0.390722},{"id":3036,"name":"Benillup","province":"Alacant/Alicante","lat":38.753411,"lng":-0.37904},{"id":3037,"name":"Benimantell","province":"Alacant/Alicante","lat":38.676655,"lng":-0.209683},{"id":3038,"name":"Benimarfull","province":"Alacant/Alicante","lat":38.775741,"lng":-0.391311},{"id":3039,"name":"Benimassot","province":"Alacant/Alicante","lat":38.749012,"lng":-0.29224},{"id":3040,"name":"Benimeli","province":"Alacant/Alicante","lat":38.822865,"lng":-0.042101},{"id":46063,"name":"Benimodo","province":"València/Valencia","lat":39.212962,"lng":-0.528515},{"id":46064,"name":"Benimuslem","province":"València/Valencia","lat":39.131506,"lng":-0.492775},{"id":46065,"name":"Beniparrell","province":"València/Valencia","lat":39.382213,"lng":-0.412433},{"id":46066,"name":"Benirredrà","province":"València/Valencia","lat":38.961069,"lng":-0.193755},{"id":3041,"name":"Benissa","province":"Alacant/Alicante","lat":38.716373,"lng":0.053192},{"id":43026,"name":"Benissanet","province":"Tarragona","lat":41.05678,"lng":0.635123},{"id":46067,"name":"Benissanó","province":"València/Valencia","lat":39.61292,"lng":-0.576963},{"id":46068,"name":"Benissoda","province":"València/Valencia","lat":38.831507,"lng":-0.530175},{"id":46069,"name":"Benissuera","province":"València/Valencia","lat":38.912805,"lng":-0.476475},{"id":4026,"name":"Benitagla","province":"Almería","lat":37.231708,"lng":-2.238008},{"id":4027,"name":"Benizalón","province":"Almería","lat":37.21189,"lng":-2.241656},{"id":12029,"name":"Benlloc","province":"Castelló/Castellón","lat":40.209586,"lng":0.02958},{"id":10027,"name":"Benquerencia","province":"Cáceres","lat":39.310084,"lng":-6.084534},{"id":6018,"name":"Benquerencia de la Serena","province":"Badajoz","lat":38.699562,"lng":-5.494741},{"id":4028,"name":"Bentarique","province":"Almería","lat":36.986532,"lng":-2.619423},{"id":24016,"name":"Benuza","province":"León","lat":42.400161,"lng":-6.709688},{"id":31250,"name":"Bera","province":"Navarra","lat":43.281749,"lng":-1.687191},{"id":48016,"name":"Berango","province":"Bizkaia","lat":43.363587,"lng":-2.99692},